fips,county,state,mortality_ast_2014,perc_mortality_change_ast,mortality_cwp_2014,perc_mortality_change_cwp,mortality_lung_2014,perc_mortality_change_lung,mortality_resp_2014,perc_mortality_change_resp,year,days_with_aqi,good_days,moderate_days,unhealthy_for_sensitive_groups_days,unhealthy_days,very_unhealthy_days,hazardous_days,max_aqi,x90th_percentile_aqi,median_aqi,days_co,days_no2,days_ozone,days_pm2_5,days_pm10,lat,long,distance_to_nearest_plant,name_of_nearest_plant
10001,Kent,Delaware,1.38,-19.07,0.02,-70.84,6.3,154.1,62.05,46.96,2014,364,295,68,1,0,0,0,108,59,42,0,0,225,139,0,39.086,-75.5686,62752.23090467375,Indian River power station
10003,New Castle,Delaware,1.12,-24.18,0.03,-79.9,5.94,163.55,49.38,31.89,2014,365,205,149,10,1,0,0,152,78,49,0,7,186,172,0,39.5768,-75.6527,87357.92448577312,Herbert Wagner Generating Station
10005,Sussex,Delaware,0.92,-44.22,0.06,-44.62,5.76,109.32,50.21,14.04,2014,365,261,103,1,0,0,0,105,64,43,0,0,244,121,0,38.6606,-75.39,16001.127622584328,Indian River power station
1001,Autauga,Alabama,1.07,-29.51,0.08,20.22,5.72,108.69,81.79,75.67,NA,NA,NA,NA,NA,NA,NA,NA,NA,NA,NA,NA,NA,NA,NA,NA,32.5349,-86.6427,80408.18879791883,Gaston Steam Plant
1003,Baldwin,Alabama,0.94,-40.13,0.03,-12.4,6.34,126.92,54.28,46.1,2014,280,232,46,2,0,0,0,112,59,38,0,0,205,75,0,30.7276,-87.7226,41296.383940089334,Barry Steam Plant
1005,Barbour,Alabama,1.63,-35.42,0.03,-19.36,6.47,90.26,69.82,62.98,NA,NA,NA,NA,NA,NA,NA,NA,NA,NA,NA,NA,NA,NA,NA,NA,31.8696,-85.3932,174419.9909648493,Wansley Plant
1007,Bibb,Alabama,1.31,-26.15,0.32,-40.24,5.55,115.12,84.49,83.11,NA,NA,NA,NA,NA,NA,NA,NA,NA,NA,NA,NA,NA,NA,NA,NA,32.9986,-87.1265,67948.94235121518,Gaston Steam Plant
1009,Blount,Alabama,1.09,-29.2,0.18,-72.06,5.26,126.28,87.05,99.3,NA,NA,NA,NA,NA,NA,NA,NA,NA,NA,NA,NA,NA,NA,NA,NA,33.9809,-86.5674,59718.53965702719,Miller Steam Plant
1011,Bullock,Alabama,2.05,-37.18,0.03,15.95,5.58,88,51.49,44.81,NA,NA,NA,NA,NA,NA,NA,NA,NA,NA,NA,NA,NA,NA,NA,NA,32.1005,-85.7157,144629.04965048336,Gaston Steam Plant
1013,Butler,Alabama,1.74,-14.12,0.05,-13.22,5.4,115.95,75.09,125.6,NA,NA,NA,NA,NA,NA,NA,NA,NA,NA,NA,NA,NA,NA,NA,NA,31.7524,-86.6803,151019.36892411916,Barry Steam Plant
1015,Calhoun,Alabama,1.14,-31.58,0.04,-69.33,5.4,111.53,87.32,76.8,NA,NA,NA,NA,NA,NA,NA,NA,NA,NA,NA,NA,NA,NA,NA,NA,33.7714,-85.826,83012.40291652664,Gaston Steam Plant
1017,Chambers,Alabama,1.42,-25.24,0.02,-28.3,6.19,124.92,84,114.49,NA,NA,NA,NA,NA,NA,NA,NA,NA,NA,NA,NA,NA,NA,NA,NA,32.9143,-85.392,64588.11915948966,Wansley Plant
1019,Cherokee,Alabama,1.01,-36.86,0.03,-63.76,5.57,110.15,93.04,130.66,NA,NA,NA,NA,NA,NA,NA,NA,NA,NA,NA,NA,NA,NA,NA,NA,34.1759,-85.6038,63233.96672080211,Plant Bowen
1021,Chilton,Alabama,0.97,-27.01,0.13,-32.85,4.85,113.96,88.02,114.85,NA,NA,NA,NA,NA,NA,NA,NA,NA,NA,NA,NA,NA,NA,NA,NA,32.8479,-86.7188,50108.12886098208,Gaston Steam Plant
1023,Choctaw,Alabama,1.46,-29.9,0.03,-7.94,5.59,116.16,60.19,74.76,NA,NA,NA,NA,NA,NA,NA,NA,NA,NA,NA,NA,NA,NA,NA,NA,32.0198,-88.2632,114917.47884144828,Barry Steam Plant
1025,Clarke,Alabama,1.45,-31.65,0.03,-31.07,6.19,102.17,69.3,62.6,NA,NA,NA,NA,NA,NA,NA,NA,NA,NA,NA,NA,NA,NA,NA,NA,31.6767,-87.8308,76208.09366938418,Barry Steam Plant
1027,Clay,Alabama,1.09,-33.77,0.04,-38.92,5.53,100.35,76.28,75.05,2014,114,96,18,0,0,0,0,70,54,36,0,0,0,114,0,33.269,-85.8605,55837.155392620654,Gaston Steam Plant
1029,Cleburne,Alabama,1.05,-31.56,0.04,-51.15,4.86,103.85,92.84,101.8,NA,NA,NA,NA,NA,NA,NA,NA,NA,NA,NA,NA,NA,NA,NA,NA,33.6745,-85.5188,53580.17296622801,Wansley Plant
1031,Coffee,Alabama,1.5,-17.22,0.02,-7.93,6.8,102.92,79.42,71.54,NA,NA,NA,NA,NA,NA,NA,NA,NA,NA,NA,NA,NA,NA,NA,NA,31.4027,-85.9882,197500.45501117696,Barry Steam Plant
1033,Colbert,Alabama,1.38,-15.46,0.03,-51.03,5.6,122.5,80.43,114.61,2014,284,251,33,0,0,0,0,87,52,37,0,0,206,78,0,34.7005,-87.8049,136882.39071048948,Miller Steam Plant
1035,Conecuh,Alabama,1.34,-26.7,0.1,25.55,5.46,108.8,76.4,135.95,NA,NA,NA,NA,NA,NA,NA,NA,NA,NA,NA,NA,NA,NA,NA,NA,31.4292,-86.9937,107473.876333667,Barry Steam Plant
1037,Coosa,Alabama,1.24,-30.81,0.08,-8.6,5.39,116.09,78.67,93.67,NA,NA,NA,NA,NA,NA,NA,NA,NA,NA,NA,NA,NA,NA,NA,NA,32.9362,-86.2477,39343.46379276811,Gaston Steam Plant
1039,Covington,Alabama,1.02,-28.25,0.08,-23.11,5.77,104.38,74.47,87.68,NA,NA,NA,NA,NA,NA,NA,NA,NA,NA,NA,NA,NA,NA,NA,NA,31.2485,-86.4513,150946.3173446655,Barry Steam Plant
1041,Crenshaw,Alabama,1.76,-20.72,0.05,-22.71,5.67,101.81,107.9,118.91,NA,NA,NA,NA,NA,NA,NA,NA,NA,NA,NA,NA,NA,NA,NA,NA,31.7315,-86.3136,168192.14073591764,Gaston Steam Plant
1043,Cullman,Alabama,0.82,-30.09,0.1,-65.57,5.27,116.24,89.78,99.19,NA,NA,NA,NA,NA,NA,NA,NA,NA,NA,NA,NA,NA,NA,NA,NA,34.1319,-86.8676,58106.745371443394,Miller Steam Plant
1045,Dale,Alabama,1.54,-10.88,0.05,9.96,6.43,102.51,84.85,93.02,NA,NA,NA,NA,NA,NA,NA,NA,NA,NA,NA,NA,NA,NA,NA,NA,31.4318,-85.611,216146.081465144,Gaston Steam Plant
1047,Dallas,Alabama,2.47,-8.92,0.02,-26.59,6.62,120.46,65.59,59.76,NA,NA,NA,NA,NA,NA,NA,NA,NA,NA,NA,NA,NA,NA,NA,NA,32.326,-87.1065,118429.8552985932,Gaston Steam Plant
1049,DeKalb,Alabama,0.96,-33.17,0.05,-67.7,5.2,119.51,101.8,167.49,2014,360,313,47,0,0,0,0,90,54,38,0,0,300,60,0,34.4598,-85.8041,89357.97515421067,Plant Bowen
1051,Elmore,Alabama,1.01,-27.26,0.07,-0.35,5.67,122.45,91.25,122.64,2014,245,224,21,0,0,0,0,84,49,36,0,0,245,0,0,32.5966,-86.1492,77337.50908555114,Gaston Steam Plant
1053,Escambia,Alabama,1.22,-29.82,0.04,-36.54,7.04,118.39,67.63,73.22,NA,NA,NA,NA,NA,NA,NA,NA,NA,NA,NA,NA,NA,NA,NA,NA,31.1261,-87.1616,81929.6448474976,Barry Steam Plant
1055,Etowah,Alabama,1.3,-26.1,0.06,-73.06,5.37,113.86,97.44,135.09,2014,281,244,37,0,0,0,0,97,54,38,0,0,207,74,0,34.0453,-86.0348,97281.45705258248,Gaston Steam Plant
1057,Fayette,Alabama,1.26,-16.55,0.13,-62.7,8.38,153.7,86.07,120.77,NA,NA,NA,NA,NA,NA,NA,NA,NA,NA,NA,NA,NA,NA,NA,NA,33.7212,-87.7388,63718.553688586384,Miller Steam Plant
1059,Franklin,Alabama,0.98,-23.6,0.06,-55.44,4.84,116.61,104.3,148.08,NA,NA,NA,NA,NA,NA,NA,NA,NA,NA,NA,NA,NA,NA,NA,NA,34.4417,-87.8437,115253.45262647713,Miller Steam Plant
1061,Geneva,Alabama,1.32,-24.53,0.11,2.87,7.58,98.16,78.8,56.01,NA,NA,NA,NA,NA,NA,NA,NA,NA,NA,NA,NA,NA,NA,NA,NA,31.095,-85.8391,207329.9121744784,Barry Steam Plant
1063,Greene,Alabama,2.83,-29.19,0.03,-40.24,6.81,128.45,57.38,73.82,NA,NA,NA,NA,NA,NA,NA,NA,NA,NA,NA,NA,NA,NA,NA,NA,32.8531,-87.9522,120007.52506468732,Miller Steam Plant
1065,Hale,Alabama,1.98,-29.63,0.04,-52.45,6.33,133.85,61.15,88.71,NA,NA,NA,NA,NA,NA,NA,NA,NA,NA,NA,NA,NA,NA,NA,NA,32.7627,-87.6291,110173.12479405882,Miller Steam Plant
1067,Henry,Alabama,1.8,-29.86,0.05,9.09,7.93,94.97,71.04,65.53,NA,NA,NA,NA,NA,NA,NA,NA,NA,NA,NA,NA,NA,NA,NA,NA,31.5147,-85.2414,211385.29647088487,Wansley Plant
1069,Houston,Alabama,1.81,-6.39,0.04,7.17,8.56,106.14,66.9,50.49,2014,279,241,38,0,0,0,0,80,52,38,0,0,212,67,0,31.1532,-85.3025,251838.71747490717,Wansley Plant
1071,Jackson,Alabama,1.3,-22.46,0.1,-32.29,5.12,125.8,94.69,126.3,NA,NA,NA,NA,NA,NA,NA,NA,NA,NA,NA,NA,NA,NA,NA,NA,34.7795,-85.9994,122797.1212632716,Plant Bowen
1073,Jefferson,Alabama,1.68,-21.48,0.11,-84.98,6.92,122.5,59.24,24.4,2014,365,159,200,6,0,0,0,112,74,53,0,7,72,284,2,33.5543,-86.8964,17508.44555288642,Miller Steam Plant
1075,Lamar,Alabama,1.25,-17.26,0.09,-44.75,5.04,105.02,89.17,120.87,NA,NA,NA,NA,NA,NA,NA,NA,NA,NA,NA,NA,NA,NA,NA,NA,33.7791,-88.097,97503.20385141282,Miller Steam Plant
1077,Lauderdale,Alabama,1.16,-26.6,0.03,-56.47,7.2,140.37,75.94,95.2,NA,NA,NA,NA,NA,NA,NA,NA,NA,NA,NA,NA,NA,NA,NA,NA,34.9014,-87.654,150949.08457170424,Miller Steam Plant
1079,Lawrence,Alabama,1.2,-33.34,0.03,-54.49,5.49,121.85,92.36,130.35,2014,104,92,12,0,0,0,0,83,52,27,0,0,0,104,0,34.5217,-87.311,101249.98653543871,Miller Steam Plant
1081,Lee,Alabama,1.15,-34.19,0.02,-17.07,5.9,107.41,74.45,109.43,NA,NA,NA,NA,NA,NA,NA,NA,NA,NA,NA,NA,NA,NA,NA,NA,32.6011,-85.3555,94898.15638080829,Wansley Plant
1083,Limestone,Alabama,1.07,-40.04,0.03,-58.29,5.79,119.5,64.91,73.43,NA,NA,NA,NA,NA,NA,NA,NA,NA,NA,NA,NA,NA,NA,NA,NA,34.8101,-86.9814,130752.65955794032,Miller Steam Plant
1085,Lowndes,Alabama,2.53,-25.83,0.03,35.1,6.67,133.57,55.88,76.19,NA,NA,NA,NA,NA,NA,NA,NA,NA,NA,NA,NA,NA,NA,NA,NA,32.1547,-86.6501,122033.298291244,Gaston Steam Plant
1087,Macon,Alabama,2.07,-40.46,0.02,22.87,5.26,97.07,45.36,60.25,NA,NA,NA,NA,NA,NA,NA,NA,NA,NA,NA,NA,NA,NA,NA,NA,32.3859,-85.6926,119116.44983184658,Gaston Steam Plant
1089,Madison,Alabama,1.17,-39.7,0.02,-43.8,6.18,115.74,61.87,61.36,2014,338,281,57,0,0,0,0,97,58,39,0,0,214,68,56,34.7631,-86.5502,133849.85756788123,Miller Steam Plant
1091,Marengo,Alabama,1.63,-33.22,0.03,-33.21,5.89,109.2,62.26,67.04,NA,NA,NA,NA,NA,NA,NA,NA,NA,NA,NA,NA,NA,NA,NA,NA,32.2477,-87.7895,139181.8699612175,Barry Steam Plant
1093,Marion,Alabama,1.18,-15.07,0.14,-57.52,5.08,120.12,87.77,122.64,NA,NA,NA,NA,NA,NA,NA,NA,NA,NA,NA,NA,NA,NA,NA,NA,34.1366,-87.8871,94738.87995406309,Miller Steam Plant
1095,Marshall,Alabama,1.07,-23.72,0.05,-59.89,5.11,118.05,105.6,177.45,NA,NA,NA,NA,NA,NA,NA,NA,NA,NA,NA,NA,NA,NA,NA,NA,34.367,-86.3066,107086.07369049448,Miller Steam Plant
1097,Mobile,Alabama,1.44,-35.08,0.03,21.87,7.39,121.66,65.83,50.37,2014,285,224,55,6,0,0,0,115,67,41,0,0,223,61,1,30.7872,-88.2058,30762.477779993744,Barry Steam Plant
1099,Monroe,Alabama,1.26,-37.24,0.03,-15.72,6.3,99.57,64.72,73.47,NA,NA,NA,NA,NA,NA,NA,NA,NA,NA,NA,NA,NA,NA,NA,NA,31.5709,-87.3654,87564.63073656576,Barry Steam Plant
11001,District of Columbia,District of Columbia,1.56,-62.04,0.01,-62.79,5.14,30.6,30.21,-18.44,NA,NA,NA,NA,NA,NA,NA,NA,NA,NA,NA,NA,NA,NA,NA,NA,38.9047,-77.0163,51571.46463170681,Brandon Shores Generating Station
1101,Montgomery,Alabama,1.97,-8.19,0.04,9.31,6.7,127.91,68.04,69.35,2014,284,235,49,0,0,0,0,87,56,40,0,0,198,86,0,32.2203,-86.2076,115855.77898341122,Gaston Steam Plant
1103,Morgan,Alabama,0.86,-33.51,0.09,-32.93,4.86,116.88,76.82,95.01,2014,283,238,45,0,0,0,0,93,54,39,0,0,209,74,0,34.4535,-86.8529,92977.730901972,Miller Steam Plant
1105,Perry,Alabama,2.39,-15.32,0.09,-3.63,6.03,140.06,67.18,107.48,NA,NA,NA,NA,NA,NA,NA,NA,NA,NA,NA,NA,NA,NA,NA,NA,32.6385,-87.2944,102960.70442782344,Gaston Steam Plant
1107,Pickens,Alabama,1.44,-26.29,0.04,-50.36,6.03,121.52,63.94,92.77,NA,NA,NA,NA,NA,NA,NA,NA,NA,NA,NA,NA,NA,NA,NA,NA,33.2808,-88.0887,103330.94553264456,Miller Steam Plant
1109,Pike,Alabama,1.81,-19.15,0.03,3.74,6.58,118.63,72.77,86.72,NA,NA,NA,NA,NA,NA,NA,NA,NA,NA,NA,NA,NA,NA,NA,NA,31.8027,-85.9409,166991.0244851211,Gaston Steam Plant
1111,Randolph,Alabama,1.24,-38.91,0.03,-34.99,4.74,107.18,73.3,110.32,NA,NA,NA,NA,NA,NA,NA,NA,NA,NA,NA,NA,NA,NA,NA,NA,33.2938,-85.4591,41715.47127478763,Wansley Plant
1113,Russell,Alabama,1.42,-36.96,0.02,-39.22,5.95,81.33,80.35,73.62,2014,284,218,65,1,0,0,0,108,58,40,0,0,184,100,0,32.2884,-85.1849,125490.11598599576,Wansley Plant
1115,St. Clair,Alabama,1.17,-30.63,0.17,-77.8,5.11,110.88,91.5,83.25,NA,NA,NA,NA,NA,NA,NA,NA,NA,NA,NA,NA,NA,NA,NA,NA,33.7157,-86.3146,54100.06680883007,Gaston Steam Plant
1117,Shelby,Alabama,0.76,-45.07,0.19,-60.12,5.44,102.66,53.63,0.43,2014,273,226,46,1,0,0,0,119,54,40,0,0,210,63,0,33.2643,-86.6607,18946.901718062716,Gaston Steam Plant
1119,Sumter,Alabama,2.2,-30.78,0.02,-34.69,5.27,94.56,51.49,43.09,2014,241,232,9,0,0,0,0,74,47,34,0,0,241,0,0,32.5911,-88.1988,129088.46988077366,Red Hills Generation Facility
1121,Talladega,Alabama,1.54,-20,0.03,-56.51,5.35,108.82,89.67,119.85,2014,108,86,22,0,0,0,0,79,56,37,0,0,0,108,0,33.3801,-86.1659,31230.16262844751,Gaston Steam Plant
1123,Tallapoosa,Alabama,1.14,-32.28,0.03,-29.48,4.72,89.54,83.09,101.74,NA,NA,NA,NA,NA,NA,NA,NA,NA,NA,NA,NA,NA,NA,NA,NA,32.8624,-85.7975,74830.21072173645,Gaston Steam Plant
1125,Tuscaloosa,Alabama,1.2,-27.09,0.14,-74.27,7.65,126.85,71,74.6,2014,280,251,29,0,0,0,0,93,52,36,0,0,190,90,0,33.2896,-87.5251,57646.985586407696,Miller Steam Plant
1127,Walker,Alabama,1.39,-12.94,0.92,-80.46,7.07,132.35,119.7,118.5,NA,NA,NA,NA,NA,NA,NA,NA,NA,NA,NA,NA,NA,NA,NA,NA,33.8033,-87.2973,28995.228212203525,Miller Steam Plant
1129,Washington,Alabama,1.15,-31.31,0.03,-25.06,6.29,131.21,64.48,67.38,NA,NA,NA,NA,NA,NA,NA,NA,NA,NA,NA,NA,NA,NA,NA,NA,31.4076,-88.2079,48345.97038470979,Barry Steam Plant
1131,Wilcox,Alabama,2.32,-27.41,0.03,-21.34,6.53,124.49,65.03,87.54,NA,NA,NA,NA,NA,NA,NA,NA,NA,NA,NA,NA,NA,NA,NA,NA,31.9893,-87.3082,127682.41881733642,Barry Steam Plant
1133,Winston,Alabama,1.15,-18.49,0.15,-53.45,5.57,126.12,109.5,166.7,NA,NA,NA,NA,NA,NA,NA,NA,NA,NA,NA,NA,NA,NA,NA,NA,34.1492,-87.3737,64182.52113816299,Miller Steam Plant
12001,Alachua,Florida,1.08,-43.99,0.06,-65.85,7.71,97.52,52.85,12.63,2014,361,329,32,0,0,0,0,77,49,35,0,0,227,134,0,29.6747,-82.3577,9810.685336141612,Deerhaven Generating Station
12003,Baker,Florida,1.22,-30.37,0.04,-57.61,6.94,96.1,97.07,41.25,2014,362,347,15,0,0,0,0,74,46,33,0,0,362,0,0,30.3311,-82.2846,64183.01475605341,Deerhaven Generating Station
12005,Bay,Florida,1.16,-43.62,0.06,-53.54,5.72,68.44,79.48,49.69,2014,365,294,71,0,0,0,0,100,59,40,0,0,227,138,0,30.2652,-85.6203,243266.47975581468,Barry Steam Plant
12007,Bradford,Florida,1.15,-36.87,0.09,-53.26,7.35,100.25,76.84,29.01,NA,NA,NA,NA,NA,NA,NA,NA,NA,NA,NA,NA,NA,NA,NA,NA,29.95,-82.1687,29946.929551788777,Deerhaven Generating Station
12009,Brevard,Florida,0.77,-41.96,0.05,-81.03,5.46,82.67,57.16,38.01,2014,365,312,53,0,0,0,0,87,54,39,0,0,274,91,0,28.2937,-80.7323,47536.61779555447,Stanton Energy Center
12011,Broward,Florida,0.92,-40.67,0.01,-83.79,3.56,80.56,39.77,21.83,2014,365,315,48,2,0,0,0,115,53,38,0,23,210,132,0,26.1523,-80.4871,263220.4279955423,Big Bend Station
12013,Calhoun,Florida,1.25,-34.49,0.1,-11.76,5.74,80.38,87.93,74.29,NA,NA,NA,NA,NA,NA,NA,NA,NA,NA,NA,NA,NA,NA,NA,NA,30.4061,-85.1971,277439.2785951179,Barry Steam Plant
12015,Charlotte,Florida,0.84,-35.28,0.03,-47.23,4.76,70.91,46.68,72.73,NA,NA,NA,NA,NA,NA,NA,NA,NA,NA,NA,NA,NA,NA,NA,NA,26.9055,-81.9123,109817.71612212062,Big Bend Station
12017,Citrus,Florida,0.83,-42.28,0.04,-68.37,4.81,74.6,74.78,136.73,2014,120,113,7,0,0,0,0,80,47,26,0,0,0,120,0,28.8489,-82.4794,24677.49400747212,Crystal River Energy Complex
12019,Clay,Florida,1,-24.36,0.09,-62.71,7.11,121.69,72.47,49.74,NA,NA,NA,NA,NA,NA,NA,NA,NA,NA,NA,NA,NA,NA,NA,NA,29.9831,-81.8579,35183.99999041126,Seminole Generating Station
12021,Collier,Florida,0.58,-64.42,0.03,-51.95,4.41,53.2,30.13,-15.62,2014,365,324,41,0,0,0,0,77,51,36,0,0,219,146,0,26.1108,-81.3475,213974.61353174623,Big Bend Station
12023,Columbia,Florida,1.48,-27.68,0.02,-51.74,7.3,110.96,89.46,51.08,2014,338,301,37,0,0,0,0,80,51,34,0,0,299,39,0,30.2242,-82.6215,56258.83605696893,Deerhaven Generating Station
12027,DeSoto,Florida,0.86,-55.06,0.08,-53.82,4.43,34.24,49.68,14.95,NA,NA,NA,NA,NA,NA,NA,NA,NA,NA,NA,NA,NA,NA,NA,NA,27.1863,-81.8094,89348.39581176666,Big Bend Station
12029,Dixie,Florida,1.13,-37.89,0.07,-37.38,7.59,111.63,86.51,65.04,NA,NA,NA,NA,NA,NA,NA,NA,NA,NA,NA,NA,NA,NA,NA,NA,29.6082,-83.1588,76454.43897389284,Deerhaven Generating Station
12031,Duval,Florida,1.73,-23.67,0.01,-78.3,6.05,81.35,59.14,3.38,2014,365,268,93,4,0,0,0,126,64,43,0,3,205,157,0,30.3316,-81.6708,14766.22009862821,Northside Generating Station
12033,Escambia,Florida,1.35,-23.67,0.04,-13.4,7.06,122.29,70.16,71.46,2014,365,273,88,4,0,0,0,126,61,42,0,0,207,158,0,30.669,-87.363,72227.31829102847,Barry Steam Plant
12035,Flagler,Florida,0.98,-37.35,0.04,-49.03,5.14,95.06,42.3,39.5,2014,360,335,25,0,0,0,0,90,47,35,0,0,360,0,0,29.4614,-81.3136,43197.481785246935,Seminole Generating Station
12037,Franklin,Florida,1.26,-37.75,0.14,2.76,5.9,83.37,76.47,63.88,NA,NA,NA,NA,NA,NA,NA,NA,NA,NA,NA,NA,NA,NA,NA,NA,29.8765,-84.814,229017.5681286497,Crystal River Energy Complex
12039,Gadsden,Florida,2.13,-40.11,0.18,88.91,8.02,95.31,55.88,33.82,NA,NA,NA,NA,NA,NA,NA,NA,NA,NA,NA,NA,NA,NA,NA,NA,30.5795,-84.6136,232854.72107504768,Deerhaven Generating Station
12041,Gilchrist,Florida,1.04,-48.55,0.06,-54.26,8.08,103.57,74.86,26.22,NA,NA,NA,NA,NA,NA,NA,NA,NA,NA,NA,NA,NA,NA,NA,NA,29.7258,-82.8004,40059.06010869863,Deerhaven Generating Station
12043,Glades,Florida,0.75,-56.75,0.03,-59.87,3.83,43.42,44.14,15.02,NA,NA,NA,NA,NA,NA,NA,NA,NA,NA,NA,NA,NA,NA,NA,NA,26.9564,-81.189,151816.02571360968,Big Bend Station
12045,Gulf,Florida,1.2,-39.74,0.07,-18.8,4.57,62.26,80.75,66.64,NA,NA,NA,NA,NA,NA,NA,NA,NA,NA,NA,NA,NA,NA,NA,NA,29.9556,-85.2266,268871.9274137932,Crystal River Energy Complex
12047,Hamilton,Florida,1.89,-36.63,0.04,-20.23,7.13,92.08,77.5,49.65,2014,271,214,57,0,0,0,0,72,56,38,0,0,0,271,0,30.4964,-82.9479,97927.37413561884,Deerhaven Generating Station
12049,Hardee,Florida,0.89,-44.09,0.08,-47.61,5.05,52.6,62.7,48.27,NA,NA,NA,NA,NA,NA,NA,NA,NA,NA,NA,NA,NA,NA,NA,NA,27.4927,-81.81,67410.64863613402,Big Bend Station
12051,Hendry,Florida,0.97,-52.2,0.03,-59.92,4.09,44.9,59.17,33.23,NA,NA,NA,NA,NA,NA,NA,NA,NA,NA,NA,NA,NA,NA,NA,NA,26.5535,-81.1659,184224.59902190443,Big Bend Station
12053,Hernando,Florida,0.6,-50.09,0.04,-52.77,4.83,65.06,64.16,104.82,NA,NA,NA,NA,NA,NA,NA,NA,NA,NA,NA,NA,NA,NA,NA,NA,28.5535,-82.4245,52223.63098224056,Crystal River Energy Complex
12055,Highlands,Florida,0.9,-42.26,0.08,-35.17,4.31,60.45,61.6,82.25,2014,350,327,23,0,0,0,0,77,47,32,0,0,350,0,0,27.3433,-81.341,116192.09188237115,Big Bend Station
12057,Hillsborough,Florida,1.04,-46.25,0.03,-73.81,4.44,47.7,52.95,3.28,2014,365,250,109,6,0,0,0,115,71,44,0,1,185,179,0,27.9291,-82.3091,17575.579795178364,Big Bend Station
12059,Holmes,Florida,1.16,-21.52,0.2,-1,6.57,96.58,101.5,85.75,2014,365,294,71,0,0,0,0,100,55,39,0,0,180,185,0,30.8679,-85.814,210304.5005468768,Barry Steam Plant
12061,Indian River,Florida,0.7,-53.91,0.02,-70.77,5.15,65.3,41.12,25.2,2014,349,315,33,1,0,0,0,105,50,37,0,0,349,0,0,27.6943,-80.6062,103346.94159640028,Stanton Energy Center
12063,Jackson,Florida,1.42,-32.81,0.11,14.58,7.5,101.25,66.29,50.78,NA,NA,NA,NA,NA,NA,NA,NA,NA,NA,NA,NA,NA,NA,NA,NA,30.7954,-85.2155,268059.69537143194,Barry Steam Plant
12065,Jefferson,Florida,1.7,-48.72,0.04,10.83,6.28,92.07,55.63,31.36,NA,NA,NA,NA,NA,NA,NA,NA,NA,NA,NA,NA,NA,NA,NA,NA,30.4375,-83.8953,163590.11986657663,Deerhaven Generating Station
12067,Lafayette,Florida,1.12,-32.88,0.06,-39.14,7.84,119.63,79.8,38.71,NA,NA,NA,NA,NA,NA,NA,NA,NA,NA,NA,NA,NA,NA,NA,NA,29.9855,-83.1811,80619.69323716676,Deerhaven Generating Station
12069,Lake,Florida,0.66,-55.73,0.03,-73.43,4.97,81.66,46.09,28.43,2014,362,331,29,2,0,0,0,108,50,33,0,0,362,0,0,28.7615,-81.7113,61485.33131089304,Stanton Energy Center
12071,Lee,Florida,0.56,-53.69,0.02,-55.5,4.62,55.99,40.13,23.88,2014,365,306,59,0,0,0,0,93,54,38,0,0,255,106,4,26.5779,-81.8337,146125.87262184874,Big Bend Station
12073,Leon,Florida,1.36,-33.31,0.03,-4.21,7.15,110.87,47.91,5.81,2014,365,250,114,0,1,0,0,157,61,43,0,0,123,242,0,30.458,-84.2779,197932.13785644312,Deerhaven Generating Station
12075,Levy,Florida,1.03,-47.94,0.07,-52.76,6.08,86.54,75.89,67.08,NA,NA,NA,NA,NA,NA,NA,NA,NA,NA,NA,NA,NA,NA,NA,NA,29.3184,-82.7436,40271.61434960975,Crystal River Energy Complex
12077,Liberty,Florida,1.26,-30.73,0.1,-13.35,6.35,94.23,91.93,56.02,2014,351,343,8,0,0,0,0,61,44,32,0,0,351,0,0,30.2414,-84.8829,246576.50338702952,Deerhaven Generating Station
12079,Madison,Florida,1.65,-39.69,0.04,-28.2,7.24,100.64,61.37,41.37,NA,NA,NA,NA,NA,NA,NA,NA,NA,NA,NA,NA,NA,NA,NA,NA,30.4441,-83.4701,129006.56988791768,Deerhaven Generating Station
12081,Manatee,Florida,0.66,-52.87,0.02,-68.8,4.27,43.52,40,1.84,2014,365,333,31,1,0,0,0,101,50,36,0,0,365,0,0,27.4719,-82.3153,36769.3673708805,Big Bend Station
12083,Marion,Florida,1.1,-41.49,0.07,-62.33,4.89,78.2,57.75,45.01,2014,365,307,58,0,0,0,0,97,54,39,0,0,199,166,0,29.2102,-82.0567,68682.240919702,Crystal River Energy Complex
12085,Martin,Florida,0.57,-54.83,0.01,-65.47,4.24,57.2,45.67,43.71,2014,363,329,33,1,0,0,0,101,50,37,0,0,259,104,0,27.0775,-80.4315,171801.83366787207,Stanton Energy Center
12086,Miami-Dade,Florida,0.98,-49.41,0,-72.5,4.23,86.53,33.65,3.33,2014,365,272,92,1,0,0,0,123,59,43,0,4,139,222,0,25.615,-80.5623,303083.48889475735,Big Bend Station
12087,Monroe,Florida,0.79,-61.58,0.04,-37.27,4.48,63.56,39.11,-0.94,NA,NA,NA,NA,NA,NA,NA,NA,NA,NA,NA,NA,NA,NA,NA,NA,25.3187,-81.1087,303099.8684903339,Big Bend Station
12089,Nassau,Florida,1.03,-32.56,0.06,-37.52,6.77,98.71,70.06,27.4,2014,266,211,55,0,0,0,0,70,58,36,0,0,0,266,0,30.6107,-81.8017,31816.082355883656,Northside Generating Station
12091,Okaloosa,Florida,0.67,-39.11,0.02,-36.58,5.74,111.37,71.16,71.83,2014,364,336,27,1,0,0,0,115,47,35,0,0,348,0,16,30.6913,-86.5917,139979.8283433271,Barry Steam Plant
12093,Okeechobee,Florida,0.82,-46.39,0.06,-55.19,4.41,53.1,76.53,49.18,NA,NA,NA,NA,NA,NA,NA,NA,NA,NA,NA,NA,NA,NA,NA,NA,27.3864,-80.8886,124567.67138580148,Stanton Energy Center
12095,Orange,Florida,0.98,-43.32,0.04,-86.19,5.46,81.12,45.49,-11.71,2014,362,300,61,1,0,0,0,126,56,39,0,3,226,133,0,28.5145,-81.3236,15667.313058698395,Stanton Energy Center
12097,Osceola,Florida,0.86,-43.18,0.04,-78.4,4.38,74.28,52.08,11.39,2014,348,316,32,0,0,0,0,100,50,33,0,0,348,0,0,28.0627,-81.1494,46592.74386434398,Stanton Energy Center
12099,Palm Beach,Florida,0.72,-53.88,0.01,-78.27,3.37,55.55,32.77,11.39,2014,365,308,55,2,0,0,0,119,59,38,0,0,271,94,0,26.6476,-80.4655,214858.8210757238,Stanton Energy Center
12101,Pasco,Florida,0.85,-45.82,0.03,-81.95,4.45,52.82,65.69,85.49,2014,365,331,33,1,0,0,0,108,50,35,0,0,365,0,0,28.3091,-82.3932,57053.84538593117,Big Bend Station
12103,Pinellas,Florida,0.83,-46.64,0.02,-81.31,4.33,54.62,48.48,29.39,2014,365,287,77,1,0,0,0,112,58,40,0,1,198,166,0,27.92,-82.7256,34672.08486726184,Big Bend Station
12105,Polk,Florida,0.96,-42.67,0.03,-59.84,5.43,66.45,55.88,34.55,2014,364,288,76,0,0,0,0,87,58,40,0,0,185,179,0,27.9489,-81.6976,71566.34083272111,Big Bend Station
12107,Putnam,Florida,1.42,-30.66,0.16,-49.77,5.5,81.29,86.99,77.23,2014,292,292,0,0,0,0,0,35,20,14,0,0,0,0,292,29.6087,-81.7443,17603.56036384364,Seminole Generating Station
12109,St. Johns,Florida,0.8,-54.66,0.04,-77.54,4.71,61.45,48.72,7.03,NA,NA,NA,NA,NA,NA,NA,NA,NA,NA,NA,NA,NA,NA,NA,NA,29.9016,-81.4407,26248.83044827043,Seminole Generating Station
12111,St. Lucie,Florida,0.88,-41.04,0.01,-82.51,4.5,63.99,52.69,61.7,2014,360,343,16,1,0,0,0,122,48,34,0,0,360,0,0,27.3773,-80.472,140344.8812413101,Stanton Energy Center
12113,Santa Rosa,Florida,0.89,-41.58,0.04,-42.96,6.39,116.93,74.35,79.33,2014,365,288,74,3,0,0,0,136,59,40,0,0,220,145,0,30.7004,-87.0219,100309.05885613576,Barry Steam Plant
12115,Sarasota,Florida,0.65,-50.14,0.02,-68.29,4.52,38.67,36.05,6.64,2014,365,278,86,1,0,0,0,105,62,40,0,1,209,155,0,27.1845,-82.3315,67948.12824611145,Big Bend Station
12117,Seminole,Florida,0.82,-48.85,0.02,-84.81,5.24,89.97,49.57,14.15,2014,364,334,30,0,0,0,0,97,49,35,0,0,337,22,5,28.717,-81.2363,26809.55233389266,Stanton Energy Center
12119,Sumter,Florida,0.58,-67.17,0.04,-72.97,4.1,44.81,31.34,-17.61,NA,NA,NA,NA,NA,NA,NA,NA,NA,NA,NA,NA,NA,NA,NA,NA,28.7048,-82.081,66618.6913067183,Crystal River Energy Complex
12121,Suwannee,Florida,1.27,-41.39,0.02,-41.73,7.48,110.25,84.44,60.81,NA,NA,NA,NA,NA,NA,NA,NA,NA,NA,NA,NA,NA,NA,NA,NA,30.1956,-82.9915,75712.37248368522,Deerhaven Generating Station
12123,Taylor,Florida,1.08,-42.64,0.16,17.73,7.62,99.19,75.41,44.94,NA,NA,NA,NA,NA,NA,NA,NA,NA,NA,NA,NA,NA,NA,NA,NA,30.047,-83.6035,121646.49604460776,Deerhaven Generating Station
12125,Union,Florida,1.64,-44.42,0.07,-31.03,9.13,81.27,103.7,25.73,NA,NA,NA,NA,NA,NA,NA,NA,NA,NA,NA,NA,NA,NA,NA,NA,30.0439,-82.3714,31606.02042589149,Deerhaven Generating Station
12127,Volusia,Florida,1.1,-33.05,0.04,-73.66,4.98,77.12,63.79,61.74,2014,365,317,47,1,0,0,0,108,54,39,0,0,247,118,0,29.0584,-81.1819,63808.84705130706,Stanton Energy Center
12129,Wakulla,Florida,1.36,-38.63,0.1,-5.5,7.18,100.23,78.4,55.85,2014,319,287,31,0,1,0,0,152,51,35,0,0,277,42,0,30.1673,-84.4007,199460.3602626245,Deerhaven Generating Station
12131,Walton,Florida,0.85,-39.43,0.04,-39.01,5.33,93.72,65.91,75.42,NA,NA,NA,NA,NA,NA,NA,NA,NA,NA,NA,NA,NA,NA,NA,NA,30.6436,-86.1697,180497.12850060695,Barry Steam Plant
12133,Washington,Florida,1.19,-31.85,0.15,14.72,6.85,104.77,86.23,90.72,NA,NA,NA,NA,NA,NA,NA,NA,NA,NA,NA,NA,NA,NA,NA,NA,30.6106,-85.6653,228506.7086545136,Barry Steam Plant
13001,Appling,Georgia,1.43,-25.22,0.04,-27.04,7.38,120.92,98.04,94.31,NA,NA,NA,NA,NA,NA,NA,NA,NA,NA,NA,NA,NA,NA,NA,NA,31.7492,-82.2889,163255.74708548744,Northside Generating Station
13003,Atkinson,Georgia,1.84,-36.8,0.04,-38.26,8.79,117.65,116.4,81.06,NA,NA,NA,NA,NA,NA,NA,NA,NA,NA,NA,NA,NA,NA,NA,NA,31.2971,-82.88,159802.71774329775,Northside Generating Station
13005,Bacon,Georgia,1.57,-15.53,0.04,-20.47,7.85,143.87,89.51,94.43,NA,NA,NA,NA,NA,NA,NA,NA,NA,NA,NA,NA,NA,NA,NA,NA,31.5537,-82.4527,152240.73151756084,Northside Generating Station
13007,Baker,Georgia,1.46,-47.15,0.02,-24.46,5.82,72.9,52.4,37.06,NA,NA,NA,NA,NA,NA,NA,NA,NA,NA,NA,NA,NA,NA,NA,NA,31.3262,-84.4447,201479.7116545176,Scherer Steam Generating Station
13009,Baldwin,Georgia,1.79,-18.59,0.03,5.71,5.32,100.96,77.43,78.36,NA,NA,NA,NA,NA,NA,NA,NA,NA,NA,NA,NA,NA,NA,NA,NA,33.0693,-83.2496,52051.82515155494,Scherer Steam Generating Station
13011,Banks,Georgia,1.04,-49.07,0.03,-19.75,5.15,121.35,70.41,93.93,NA,NA,NA,NA,NA,NA,NA,NA,NA,NA,NA,NA,NA,NA,NA,NA,34.3543,-83.4972,133564.16353515696,Plant Bowen
13013,Barrow,Georgia,1.2,-48.05,0.02,-48.81,7.1,125.85,95.96,95.37,NA,NA,NA,NA,NA,NA,NA,NA,NA,NA,NA,NA,NA,NA,NA,NA,33.9932,-83.7127,103839.8941874782,Scherer Steam Generating Station
13015,Bartow,Georgia,1.15,-42.36,0.03,-44.76,7.61,129.78,80.79,72.36,NA,NA,NA,NA,NA,NA,NA,NA,NA,NA,NA,NA,NA,NA,NA,NA,34.2377,-84.8404,14433.58629768382,Plant Bowen
13017,Ben Hill,Georgia,2.06,-14.71,0.05,-26.38,6.74,116.66,87.54,99.55,NA,NA,NA,NA,NA,NA,NA,NA,NA,NA,NA,NA,NA,NA,NA,NA,31.7598,-83.2205,154407.01048149337,Scherer Steam Generating Station
13019,Berrien,Georgia,1.54,-21.4,0.03,-45.9,7.56,117.13,107.8,85.97,NA,NA,NA,NA,NA,NA,NA,NA,NA,NA,NA,NA,NA,NA,NA,NA,31.276,-83.2296,186240.24927520496,Northside Generating Station
13021,Bibb,Georgia,2.32,-13.65,0.04,-45.68,7.8,114.46,72.06,71.58,2014,365,211,152,2,0,0,0,112,64,47,0,0,73,292,0,32.8065,-83.6974,29952.830181362573,Scherer Steam Generating Station
13023,Bleckley,Georgia,1.66,-10.14,0.03,-21.31,7.75,141.79,95.58,123.19,NA,NA,NA,NA,NA,NA,NA,NA,NA,NA,NA,NA,NA,NA,NA,NA,32.4345,-83.3278,82659.39402713731,Scherer Steam Generating Station
13025,Brantley,Georgia,1.25,-24.56,0.1,2.3,7.68,114.32,114.6,81.72,NA,NA,NA,NA,NA,NA,NA,NA,NA,NA,NA,NA,NA,NA,NA,NA,31.1969,-81.9819,95423.84875442566,Northside Generating Station
13027,Brooks,Georgia,1.77,-43.89,0.05,4.26,6.95,92.76,68.04,55.17,NA,NA,NA,NA,NA,NA,NA,NA,NA,NA,NA,NA,NA,NA,NA,NA,30.842,-83.5802,166012.7200047064,Deerhaven Generating Station
13029,Bryan,Georgia,1.2,-45.47,0.03,-50.01,7.75,100.14,97.4,63.69,NA,NA,NA,NA,NA,NA,NA,NA,NA,NA,NA,NA,NA,NA,NA,NA,32.0145,-81.4436,154635.731922781,Cope Station
13031,Bulloch,Georgia,1.61,-29.16,0.02,-9.32,6.93,115.97,68.1,63.07,NA,NA,NA,NA,NA,NA,NA,NA,NA,NA,NA,NA,NA,NA,NA,NA,32.3968,-81.7432,126301.09768131272,Cope Station
13033,Burke,Georgia,2.09,-28.23,0.02,42.75,6.62,114.2,68.75,86.9,NA,NA,NA,NA,NA,NA,NA,NA,NA,NA,NA,NA,NA,NA,NA,NA,33.0611,-82.0007,96377.1945815965,Cope Station
13035,Butts,Georgia,1.77,-46.28,0.03,8.67,5.84,92.82,89.33,102.65,NA,NA,NA,NA,NA,NA,NA,NA,NA,NA,NA,NA,NA,NA,NA,NA,33.2879,-83.9572,28873.57598338798,Scherer Steam Generating Station
13037,Calhoun,Georgia,2.18,-27.41,0.03,-4.19,6.57,105.12,64.15,70.13,NA,NA,NA,NA,NA,NA,NA,NA,NA,NA,NA,NA,NA,NA,NA,NA,31.5292,-84.6245,186434.0669615217,Scherer Steam Generating Station
13039,Camden,Georgia,1.09,-49.28,0.13,-11.64,6.96,75.42,72.52,34.16,NA,NA,NA,NA,NA,NA,NA,NA,NA,NA,NA,NA,NA,NA,NA,NA,30.9306,-81.6699,57769.934936835,Northside Generating Station
13043,Candler,Georgia,1.73,-30.12,0.04,1.54,7.16,126.72,80.98,112.13,NA,NA,NA,NA,NA,NA,NA,NA,NA,NA,NA,NA,NA,NA,NA,NA,32.4034,-82.0737,144454.18014771704,Cope Station
13045,Carroll,Georgia,1.32,-36.17,0.03,-36.23,5.58,117.01,80.06,85.26,NA,NA,NA,NA,NA,NA,NA,NA,NA,NA,NA,NA,NA,NA,NA,NA,33.5828,-85.0798,19337.117074715796,Wansley Plant
13047,Catoosa,Georgia,1.02,-40.09,0.03,-57.45,6.21,146.92,74.66,64.96,NA,NA,NA,NA,NA,NA,NA,NA,NA,NA,NA,NA,NA,NA,NA,NA,34.9036,-85.1382,88538.80263205247,Plant Bowen
13049,Charlton,Georgia,1.44,-27.55,0.05,-26.49,6.29,90.76,87.67,47.93,2014,116,107,9,0,0,0,0,96,48,25,0,0,0,116,0,30.7817,-82.1379,68859.0528520383,Northside Generating Station
13051,Chatham,Georgia,1.14,-43.04,0.02,-32.24,6.14,78.93,55.6,22.51,2014,333,246,87,0,0,0,0,77,57,42,0,0,68,265,0,32.0043,-81.1329,151170.42771899386,Cope Station
13053,Chattahoochee,Georgia,0.93,-54.52,0.03,75.53,5.47,80.45,70.85,77.29,NA,NA,NA,NA,NA,NA,NA,NA,NA,NA,NA,NA,NA,NA,NA,NA,32.347,-84.787,120431.02311793872,Wansley Plant
13055,Chattooga,Georgia,1.23,-26.37,0.03,-58.6,5.52,110.74,84.93,97.08,2014,245,227,18,0,0,0,0,77,49,36,0,0,245,0,0,34.475,-85.3453,55009.632345412465,Plant Bowen
13057,Cherokee,Georgia,0.78,-51.75,0.01,-67.95,5.15,96.64,56.54,12.21,NA,NA,NA,NA,NA,NA,NA,NA,NA,NA,NA,NA,NA,NA,NA,NA,34.244,-84.4763,43010.43634838594,Plant Bowen
13059,Clarke,Georgia,1.65,-37.43,0.02,-3.98,6.54,122.61,53.73,48.36,2014,356,239,117,0,0,0,0,92,61,42,0,0,108,248,0,33.9512,-83.3673,106920.6706336786,Scherer Steam Generating Station
13061,Clay,Georgia,2.25,-35.45,0.03,0.47,6.66,101.44,52.07,47.38,NA,NA,NA,NA,NA,NA,NA,NA,NA,NA,NA,NA,NA,NA,NA,NA,31.6262,-84.9801,193618.0693860644,Scherer Steam Generating Station
13063,Clayton,Georgia,1.75,4.46,0.01,-87.88,6.13,127.94,57.62,-0.21,2014,122,88,34,0,0,0,0,83,59,43,0,0,0,122,0,33.5419,-84.3577,64464.8112777416,Wansley Plant
13065,Clinch,Georgia,1.79,-26.59,0.03,-52.27,7.87,106.06,87.58,46.08,NA,NA,NA,NA,NA,NA,NA,NA,NA,NA,NA,NA,NA,NA,NA,NA,30.915,-82.7063,123277.55590028544,Northside Generating Station
13067,Cobb,Georgia,0.81,-42.14,0.01,-66.3,5.77,107.76,46.8,-2.55,2014,307,224,81,2,0,0,0,119,61,41,0,0,40,267,0,33.9415,-84.5767,37794.33474368954,Plant Bowen
13069,Coffee,Georgia,2.03,-15.07,0.02,-53.64,9.25,136.93,95.02,107.85,2014,61,55,6,0,0,0,0,66,50,35,0,0,0,61,0,31.5493,-82.8492,176023.91780300028,Northside Generating Station
13071,Colquitt,Georgia,2.35,-18.11,0.03,-28.81,8.91,118.4,83.35,86.96,NA,NA,NA,NA,NA,NA,NA,NA,NA,NA,NA,NA,NA,NA,NA,NA,31.1884,-83.7688,206597.6300169964,Deerhaven Generating Station
13073,Columbia,Georgia,0.78,-50.17,0.06,29.72,6.15,80.34,51.56,9.95,2014,240,214,26,0,0,0,0,80,51,40,0,0,240,0,0,33.5441,-82.2641,116254.6387928262,Cope Station
13075,Cook,Georgia,2.09,-20.73,0.04,-14.24,6.93,108.84,93.04,90.57,NA,NA,NA,NA,NA,NA,NA,NA,NA,NA,NA,NA,NA,NA,NA,NA,31.154,-83.4305,184212.2449677611,Deerhaven Generating Station
13077,Coweta,Georgia,1.16,-52.15,0.02,-49.47,6.54,105.26,68.55,50.77,2014,357,285,69,3,0,0,0,108,58,38,0,0,109,248,0,33.3534,-84.7634,26018.168834876007,Wansley Plant
13079,Crawford,Georgia,1.12,-52.58,0.04,16.24,5.91,83.91,60.19,44.53,NA,NA,NA,NA,NA,NA,NA,NA,NA,NA,NA,NA,NA,NA,NA,NA,32.7145,-83.9863,41864.38755091401,Scherer Steam Generating Station
13081,Crisp,Georgia,2.14,-26.27,0.04,-28.79,5.94,87.33,63.72,46.16,NA,NA,NA,NA,NA,NA,NA,NA,NA,NA,NA,NA,NA,NA,NA,NA,31.9229,-83.7681,126186.0904501788,Scherer Steam Generating Station
13083,Dade,Georgia,1.02,-35.34,0.28,-36.27,5.49,118.25,76.02,81.24,NA,NA,NA,NA,NA,NA,NA,NA,NA,NA,NA,NA,NA,NA,NA,NA,34.8546,-85.5045,96989.5475381968,Plant Bowen
13085,Dawson,Georgia,0.87,-55.16,0.03,-56.53,4.8,89.48,59.87,25.02,2014,245,218,26,1,0,0,0,101,51,37,0,0,245,0,0,34.4443,-84.1706,77570.05346981304,Plant Bowen
13087,Decatur,Georgia,1.79,-25.17,0.03,-11.01,7.31,95.94,75.67,59.37,NA,NA,NA,NA,NA,NA,NA,NA,NA,NA,NA,NA,NA,NA,NA,NA,30.8783,-84.579,244520.4254793042,Deerhaven Generating Station
13089,DeKalb,Georgia,1.32,-36.72,0.01,-69.48,5.72,121.84,37.63,-3.66,2014,365,182,180,3,0,0,0,122,70,51,0,7,73,285,0,33.7715,-84.2264,75273.93389824891,Plant Bowen
13091,Dodge,Georgia,1.93,-20.44,0.03,-39.98,6.8,110.75,84.38,60.09,NA,NA,NA,NA,NA,NA,NA,NA,NA,NA,NA,NA,NA,NA,NA,NA,32.1722,-83.1684,115286.77263028092,Scherer Steam Generating Station
13093,Dooly,Georgia,1.99,-38.22,0.03,-32.08,6.32,97.51,57.43,20.16,NA,NA,NA,NA,NA,NA,NA,NA,NA,NA,NA,NA,NA,NA,NA,NA,32.1572,-83.7988,100155.3554507898,Scherer Steam Generating Station
13095,Dougherty,Georgia,2.6,-2.57,0.02,-31.44,7.89,113.58,66.83,50.64,2014,359,216,142,1,0,0,0,111,65,45,0,0,0,359,0,31.5335,-84.2164,173648.17745973333,Scherer Steam Generating Station
13097,Douglas,Georgia,1.15,-19.6,0.04,-52.01,6.1,122.06,62.26,30.31,2014,238,194,42,2,0,0,0,126,61,41,0,0,238,0,0,33.7018,-84.768,40468.27833044587,Wansley Plant
13099,Early,Georgia,1.93,-18.19,0.03,-19.15,6.85,112.66,58.13,62.12,NA,NA,NA,NA,NA,NA,NA,NA,NA,NA,NA,NA,NA,NA,NA,NA,31.3228,-84.9036,218667.9190274796,Scherer Steam Generating Station
13101,Echols,Georgia,1.16,-38.56,0.04,-44.76,6.06,90.7,81.6,53.29,NA,NA,NA,NA,NA,NA,NA,NA,NA,NA,NA,NA,NA,NA,NA,NA,30.7101,-82.894,116124.74367310992,Deerhaven Generating Station
13103,Effingham,Georgia,1.08,-32.96,0.04,-32.61,6.75,114.51,78.84,80.81,NA,NA,NA,NA,NA,NA,NA,NA,NA,NA,NA,NA,NA,NA,NA,NA,32.3674,-81.3414,114335.78376253865,Cope Station
13105,Elbert,Georgia,1.79,-33.4,0.1,160.2,7.51,120.68,71.4,67.21,NA,NA,NA,NA,NA,NA,NA,NA,NA,NA,NA,NA,NA,NA,NA,NA,34.1168,-82.8401,147597.0545968549,Scherer Steam Generating Station
13107,Emanuel,Georgia,1.89,-17.38,0.03,-15.59,7.78,123.44,87.83,110.5,NA,NA,NA,NA,NA,NA,NA,NA,NA,NA,NA,NA,NA,NA,NA,NA,32.5897,-82.3017,146536.64601802692,Cope Station
13109,Evans,Georgia,1.83,-25.43,0.07,7.69,9.52,149.53,75.72,79.62,NA,NA,NA,NA,NA,NA,NA,NA,NA,NA,NA,NA,NA,NA,NA,NA,32.1568,-81.8869,156082.44599973256,Cope Station
13111,Fannin,Georgia,1.05,-47.85,0.1,-29.97,4.94,108.78,74.88,91.97,NA,NA,NA,NA,NA,NA,NA,NA,NA,NA,NA,NA,NA,NA,NA,NA,34.8641,-84.3198,98742.07203303235,Plant Bowen
13113,Fayette,Georgia,0.68,-45.88,0.03,-57.26,5.74,104.91,45.46,-2.39,NA,NA,NA,NA,NA,NA,NA,NA,NA,NA,NA,NA,NA,NA,NA,NA,33.4139,-84.4943,50193.61276522766,Wansley Plant
13115,Floyd,Georgia,0.99,-40.47,0.02,-58.39,6.8,117.15,66.77,69.45,2014,362,133,228,1,0,0,0,109,72,54,0,0,0,362,0,34.2632,-85.2143,31042.774220855263,Plant Bowen
13117,Forsyth,Georgia,0.64,-61.44,0.02,-64.66,5.18,99.66,51.46,-0.65,NA,NA,NA,NA,NA,NA,NA,NA,NA,NA,NA,NA,NA,NA,NA,NA,34.2255,-84.1251,74179.33473323358,Plant Bowen
13119,Franklin,Georgia,1.68,-47.45,0.03,-7.22,5.27,111.5,81.54,99.84,NA,NA,NA,NA,NA,NA,NA,NA,NA,NA,NA,NA,NA,NA,NA,NA,34.3754,-83.2291,155386.0615383688,Scherer Steam Generating Station
13121,Fulton,Georgia,1.47,-63.6,0.01,-37.64,5.16,67.73,40.61,-6.69,2014,364,248,109,7,0,0,0,140,64,44,1,25,125,213,0,33.7903,-84.467,56086.474710955896,Plant Bowen
13123,Gilmer,Georgia,0.96,-48.93,0.07,-50.53,5.19,109.46,64.34,56.79,NA,NA,NA,NA,NA,NA,NA,NA,NA,NA,NA,NA,NA,NA,NA,NA,34.6912,-84.4556,75891.73742780031,Plant Bowen
13125,Glascock,Georgia,1.48,-17.78,0.07,15.43,5.97,134.19,71.66,79.09,NA,NA,NA,NA,NA,NA,NA,NA,NA,NA,NA,NA,NA,NA,NA,NA,33.2293,-82.6107,113166.85605472708,Scherer Steam Generating Station
13127,Glynn,Georgia,1.42,-27.96,0.06,27.32,8,106.35,73.67,58.48,2014,332,287,45,0,0,0,0,88,54,37,0,0,144,188,0,31.2309,-81.5407,90014.83716714352,Northside Generating Station
13129,Gordon,Georgia,1.1,-41.39,0.06,-50.65,6.88,125.1,75.62,71.77,NA,NA,NA,NA,NA,NA,NA,NA,NA,NA,NA,NA,NA,NA,NA,NA,34.5032,-84.8759,42042.766434836594,Plant Bowen
13131,Grady,Georgia,1.54,-31.1,0.06,21.91,6.75,106,62.4,63.84,NA,NA,NA,NA,NA,NA,NA,NA,NA,NA,NA,NA,NA,NA,NA,NA,30.8747,-84.2345,216398.9373616095,Deerhaven Generating Station
13133,Greene,Georgia,1.6,-57.23,0.02,6.47,5.4,77.57,47.42,8.99,NA,NA,NA,NA,NA,NA,NA,NA,NA,NA,NA,NA,NA,NA,NA,NA,33.5788,-83.1667,82827.27468167969,Scherer Steam Generating Station
13135,Gwinnett,Georgia,0.94,-36.75,0.01,-71.34,6.07,128.61,49.15,7.64,2014,365,270,93,2,0,0,0,105,59,41,0,0,151,214,0,33.9617,-84.0236,84821.59698191308,Plant Bowen
13137,Habersham,Georgia,1,-49.09,0.03,-31.15,5.04,119.46,68.31,109.26,NA,NA,NA,NA,NA,NA,NA,NA,NA,NA,NA,NA,NA,NA,NA,NA,34.631,-83.5311,139545.12275554705,Plant Bowen
13139,Hall,Georgia,1.09,-50.44,0.02,-54.79,5.68,115.56,61.37,39.21,2014,318,177,141,0,0,0,0,95,65,47,0,0,0,318,0,34.3169,-83.8197,103640.79587458028,Plant Bowen
13141,Hancock,Georgia,2.49,-42.21,0.01,30.13,5.67,88.85,54.46,33.6,NA,NA,NA,NA,NA,NA,NA,NA,NA,NA,NA,NA,NA,NA,NA,NA,33.2704,-83.0007,78726.96887629396,Scherer Steam Generating Station
13143,Haralson,Georgia,1.02,-36.37,0.04,-36.03,6.78,129.76,91.88,119.45,NA,NA,NA,NA,NA,NA,NA,NA,NA,NA,NA,NA,NA,NA,NA,NA,33.7942,-85.211,45388.97368332452,Wansley Plant
13145,Harris,Georgia,0.74,-62.62,0.02,-24.91,5.57,72.62,51.56,34.96,NA,NA,NA,NA,NA,NA,NA,NA,NA,NA,NA,NA,NA,NA,NA,NA,32.736,-84.9089,75957.37197413984,Wansley Plant
13147,Hart,Georgia,1.42,-45.13,0.03,3.21,6.07,114.33,67.2,71.06,NA,NA,NA,NA,NA,NA,NA,NA,NA,NA,NA,NA,NA,NA,NA,NA,34.3509,-82.9642,146003.64024200104,James E. Rogers Energy Complex
13149,Heard,Georgia,1.08,-42.27,0.04,-25.57,5.32,104.12,93.26,126.29,NA,NA,NA,NA,NA,NA,NA,NA,NA,NA,NA,NA,NA,NA,NA,NA,33.297,-85.1283,15554.849764853385,Wansley Plant
13151,Henry,Georgia,1.22,-40.76,0.02,-70.79,7.91,121.99,69.45,18.01,2014,351,251,94,5,1,0,0,159,62,40,0,0,155,196,0,33.453,-84.1542,54260.71152557225,Scherer Steam Generating Station
13153,Houston,Georgia,1.18,-27.79,0.02,-41.33,6.31,115.86,59.57,26.83,2014,348,202,143,3,0,0,0,129,64,46,0,0,0,348,0,32.459,-83.6662,67975.83557595842,Scherer Steam Generating Station
13155,Irwin,Georgia,1.61,-29.86,0.03,-33.93,6.92,109.65,79.28,72.49,NA,NA,NA,NA,NA,NA,NA,NA,NA,NA,NA,NA,NA,NA,NA,NA,31.6022,-83.2764,169231.01660082015,Scherer Steam Generating Station
13157,Jackson,Georgia,1.04,-49.08,0.02,-42.85,5.35,111.2,79.56,94.53,NA,NA,NA,NA,NA,NA,NA,NA,NA,NA,NA,NA,NA,NA,NA,NA,34.1339,-83.5664,121151.5600677619,Scherer Steam Generating Station
13159,Jasper,Georgia,1.34,-51.54,0.03,31.65,5.5,90.7,61.37,63.27,NA,NA,NA,NA,NA,NA,NA,NA,NA,NA,NA,NA,NA,NA,NA,NA,33.3165,-83.688,30500.073846154057,Scherer Steam Generating Station
13161,Jeff Davis,Georgia,1.41,-19.37,0.03,-39.04,6.83,115.46,98.09,104.3,NA,NA,NA,NA,NA,NA,NA,NA,NA,NA,NA,NA,NA,NA,NA,NA,31.8056,-82.6368,177392.73854268395,Scherer Steam Generating Station
13163,Jefferson,Georgia,3.14,-13.57,0.03,41.96,7.05,131.4,61.21,72.7,NA,NA,NA,NA,NA,NA,NA,NA,NA,NA,NA,NA,NA,NA,NA,NA,33.0549,-82.4182,129693.48635399128,Scherer Steam Generating Station
13165,Jenkins,Georgia,2.73,-29.17,0.02,-27.63,6.6,92.86,83.47,44.9,NA,NA,NA,NA,NA,NA,NA,NA,NA,NA,NA,NA,NA,NA,NA,NA,32.7924,-81.9635,107668.31424474136,Cope Station
13167,Johnson,Georgia,1.88,-15.36,0.03,-18.03,6.98,133.37,73.57,92.39,NA,NA,NA,NA,NA,NA,NA,NA,NA,NA,NA,NA,NA,NA,NA,NA,32.7015,-82.6601,114454.09038385907,Scherer Steam Generating Station
13169,Jones,Georgia,1.31,-37.23,0.04,-15.54,5.12,82.53,74.3,67.2,NA,NA,NA,NA,NA,NA,NA,NA,NA,NA,NA,NA,NA,NA,NA,NA,33.0251,-83.5605,23343.63146662554,Scherer Steam Generating Station
13171,Lamar,Georgia,1.4,-39.89,0.02,-17.52,6.21,109.8,81.44,93.66,NA,NA,NA,NA,NA,NA,NA,NA,NA,NA,NA,NA,NA,NA,NA,NA,33.0765,-84.1395,31111.423979424995,Scherer Steam Generating Station
13173,Lanier,Georgia,1.7,-31.44,0.04,-38.77,7.26,98.62,85.54,61.93,NA,NA,NA,NA,NA,NA,NA,NA,NA,NA,NA,NA,NA,NA,NA,NA,31.0379,-83.0628,155886.0684758667,Deerhaven Generating Station
13175,Laurens,Georgia,1.75,-25.17,0.03,-20.81,6.64,101.91,77.86,85.45,NA,NA,NA,NA,NA,NA,NA,NA,NA,NA,NA,NA,NA,NA,NA,NA,32.4637,-82.9222,106064.2262677647,Scherer Steam Generating Station
13177,Lee,Georgia,1.3,-29.83,0.04,-20.81,6.46,111.13,71.72,80.96,NA,NA,NA,NA,NA,NA,NA,NA,NA,NA,NA,NA,NA,NA,NA,NA,31.7795,-84.1411,145471.1030816933,Scherer Steam Generating Station
13179,Liberty,Georgia,1.65,-28.35,0.02,-17.68,8.65,120.94,71.79,50.49,NA,NA,NA,NA,NA,NA,NA,NA,NA,NA,NA,NA,NA,NA,NA,NA,31.8282,-81.4949,156337.24536228518,Northside Generating Station
13181,Lincoln,Georgia,1.83,-37.8,0.18,212.9,6.2,94.89,63.96,44.13,NA,NA,NA,NA,NA,NA,NA,NA,NA,NA,NA,NA,NA,NA,NA,NA,33.7936,-82.4512,140068.21587036917,Cope Station
13183,Long,Georgia,1.27,-42.02,0.04,-34.75,6.8,88.94,76.79,22.45,NA,NA,NA,NA,NA,NA,NA,NA,NA,NA,NA,NA,NA,NA,NA,NA,31.7526,-81.7458,148966.75907974312,Northside Generating Station
13185,Lowndes,Georgia,1.83,-30.83,0.04,-34.42,8.26,109.63,75.53,48.39,2014,339,245,94,0,0,0,0,88,60,38,0,0,0,339,0,30.8338,-83.2677,146126.32880509365,Deerhaven Generating Station
13187,Lumpkin,Georgia,0.92,-47.44,0.03,-41.19,5.01,113.55,82.49,91.95,NA,NA,NA,NA,NA,NA,NA,NA,NA,NA,NA,NA,NA,NA,NA,NA,34.5722,-84.0027,97897.40744348486,Plant Bowen
13189,McDuffie,Georgia,2.05,-19.98,0.05,54.42,6.39,103.88,68.95,60.9,NA,NA,NA,NA,NA,NA,NA,NA,NA,NA,NA,NA,NA,NA,NA,NA,33.4828,-82.4814,132080.2740402171,Scherer Steam Generating Station
13191,McIntosh,Georgia,1.36,-51.3,0.05,19.8,6.37,70.75,63.14,22.7,NA,NA,NA,NA,NA,NA,NA,NA,NA,NA,NA,NA,NA,NA,NA,NA,31.4963,-81.4103,120227.87847230933,Northside Generating Station
13193,Macon,Georgia,2.39,-26.37,0.04,9.07,6.84,122.59,60.75,37.46,NA,NA,NA,NA,NA,NA,NA,NA,NA,NA,NA,NA,NA,NA,NA,NA,32.3584,-84.0425,80914.89811919641,Scherer Steam Generating Station
13195,Madison,Georgia,1.22,-42.78,0.03,-9.41,6.98,133.62,93.71,111.51,NA,NA,NA,NA,NA,NA,NA,NA,NA,NA,NA,NA,NA,NA,NA,NA,34.1278,-83.209,130761.25226455808,Scherer Steam Generating Station
13197,Marion,Georgia,1.59,-52.66,0.05,16.89,5.79,78.96,71.85,44.54,NA,NA,NA,NA,NA,NA,NA,NA,NA,NA,NA,NA,NA,NA,NA,NA,32.3535,-84.5246,103307.18491833562,Scherer Steam Generating Station
13199,Meriwether,Georgia,1.38,-43.86,0.02,-5.76,5.17,94.58,56.59,79.14,NA,NA,NA,NA,NA,NA,NA,NA,NA,NA,NA,NA,NA,NA,NA,NA,33.0405,-84.6883,52367.88675298896,Wansley Plant
13201,Miller,Georgia,1.54,-24.74,0.06,28.76,6.36,99.09,66.25,64.28,NA,NA,NA,NA,NA,NA,NA,NA,NA,NA,NA,NA,NA,NA,NA,NA,31.164,-84.7308,227638.19058696792,Scherer Steam Generating Station
13205,Mitchell,Georgia,1.96,-31.8,0.03,-6.98,6.21,88.99,58.76,52.2,NA,NA,NA,NA,NA,NA,NA,NA,NA,NA,NA,NA,NA,NA,NA,NA,31.2253,-84.1943,206738.95866050944,Scherer Steam Generating Station
13207,Monroe,Georgia,1.23,-53.92,0.02,-7.65,5.45,77.15,52.78,36.69,NA,NA,NA,NA,NA,NA,NA,NA,NA,NA,NA,NA,NA,NA,NA,NA,33.0139,-83.9187,11644.017540432344,Scherer Steam Generating Station
13209,Montgomery,Georgia,1.39,-36.79,0.03,-31.27,6.82,100.7,83.7,79.94,NA,NA,NA,NA,NA,NA,NA,NA,NA,NA,NA,NA,NA,NA,NA,NA,32.1734,-82.5348,154685.3274038703,Scherer Steam Generating Station
13211,Morgan,Georgia,1.16,-56.06,0.02,11.32,5.54,85.69,49.92,35.63,NA,NA,NA,NA,NA,NA,NA,NA,NA,NA,NA,NA,NA,NA,NA,NA,33.5909,-83.4923,65734.58879368614,Scherer Steam Generating Station
13213,Murray,Georgia,1.13,-41.39,0.1,-53.32,7.19,128.07,98.05,86.36,2014,266,232,33,1,0,0,0,108,54,38,0,0,217,49,0,34.7884,-84.7481,75171.05287804449,Plant Bowen
13215,Muscogee,Georgia,1.78,-30.52,0.01,-33.73,7.64,115.97,70.04,47.41,2014,365,258,106,1,0,0,0,102,61,41,0,0,107,258,0,32.51,-84.8771,101185.69197609162,Wansley Plant
13217,Newton,Georgia,1.45,-33.9,0.03,-38.92,7.01,112.36,69.92,64.16,NA,NA,NA,NA,NA,NA,NA,NA,NA,NA,NA,NA,NA,NA,NA,NA,33.555,-83.8502,55014.28671808252,Scherer Steam Generating Station
13219,Oconee,Georgia,0.72,-53.78,0.02,-25.45,5.94,115.72,51.67,32.2,NA,NA,NA,NA,NA,NA,NA,NA,NA,NA,NA,NA,NA,NA,NA,NA,33.835,-83.4371,92546.53427848674,Scherer Steam Generating Station
13221,Oglethorpe,Georgia,1.23,-54.31,0.05,94.04,5.62,92.44,58.68,36.87,NA,NA,NA,NA,NA,NA,NA,NA,NA,NA,NA,NA,NA,NA,NA,NA,33.8807,-83.0807,113295.59173125512,Scherer Steam Generating Station
13223,Paulding,Georgia,0.88,-44.63,0.03,-70.43,6.26,116.7,65.91,35.8,2014,364,228,136,0,0,0,0,95,62,45,4,2,72,286,0,33.9205,-84.8673,23325.477345015064,Plant Bowen
13225,Peach,Georgia,1.99,-36.54,0.04,3.45,6.79,96.18,70.91,60.03,NA,NA,NA,NA,NA,NA,NA,NA,NA,NA,NA,NA,NA,NA,NA,NA,32.5688,-83.8269,54541.04726693228,Scherer Steam Generating Station
13227,Pickens,Georgia,1.06,-45.78,0.03,-51.44,5.88,114.6,75.98,74.95,NA,NA,NA,NA,NA,NA,NA,NA,NA,NA,NA,NA,NA,NA,NA,NA,34.4643,-84.4656,56248.74257162755,Plant Bowen
13229,Pierce,Georgia,1.31,-30.79,0.04,-23.58,7.38,109.4,94.88,93.76,NA,NA,NA,NA,NA,NA,NA,NA,NA,NA,NA,NA,NA,NA,NA,NA,31.3588,-82.2128,121699.89966265032,Northside Generating Station
13231,Pike,Georgia,0.94,-51.99,0.02,-19.04,5.5,79.43,75.78,60.78,2014,359,313,45,1,0,0,0,108,54,37,0,0,359,0,0,33.0923,-84.3892,54487.52480965528,Scherer Steam Generating Station
13233,Polk,Georgia,1.25,-34.08,0.02,-56.78,8.23,134.45,96,125.31,NA,NA,NA,NA,NA,NA,NA,NA,NA,NA,NA,NA,NA,NA,NA,NA,34.0018,-85.1881,28266.491355195263,Plant Bowen
13235,Pulaski,Georgia,1.6,-41.49,0.03,-25.02,6.16,80.48,57.88,6.03,NA,NA,NA,NA,NA,NA,NA,NA,NA,NA,NA,NA,NA,NA,NA,NA,32.2323,-83.476,96930.59970540994,Scherer Steam Generating Station
13237,Putnam,Georgia,1.25,-49.04,0.02,10.09,4.78,80.06,56.7,54.44,NA,NA,NA,NA,NA,NA,NA,NA,NA,NA,NA,NA,NA,NA,NA,NA,33.3218,-83.3728,49796.131639209314,Scherer Steam Generating Station
13239,Quitman,Georgia,1.92,-49,0.08,55.68,6.21,70.58,57.33,40.28,NA,NA,NA,NA,NA,NA,NA,NA,NA,NA,NA,NA,NA,NA,NA,NA,31.8673,-85.0188,171392.7241099113,Wansley Plant
13241,Rabun,Georgia,0.99,-48.12,0.07,-17.83,5.34,115.66,66.9,92.71,NA,NA,NA,NA,NA,NA,NA,NA,NA,NA,NA,NA,NA,NA,NA,NA,34.8818,-83.402,143764.4229550917,Bull Run Fossil Plant
13243,Randolph,Georgia,2.06,-31.48,0.04,11.39,5.67,95.01,53.12,59.21,NA,NA,NA,NA,NA,NA,NA,NA,NA,NA,NA,NA,NA,NA,NA,NA,31.7627,-84.7542,169252.94950746928,Scherer Steam Generating Station
13245,Richmond,Georgia,2,-10.39,0.02,26.47,6.58,102.56,66.23,40.27,2014,361,235,126,0,0,0,0,92,63,43,0,0,107,254,0,33.3596,-82.0736,96933.97156834704,Cope Station
13247,Rockdale,Georgia,1.6,-19.61,0.06,-58.59,6.17,106.95,58.64,22.52,2014,363,309,47,7,0,0,0,150,58,34,0,119,244,0,0,33.6543,-84.0266,68980.90276308214,Scherer Steam Generating Station
13249,Schley,Georgia,1.38,-50.17,0.07,13.7,5.34,74.64,54.43,22.59,NA,NA,NA,NA,NA,NA,NA,NA,NA,NA,NA,NA,NA,NA,NA,NA,32.2617,-84.3148,100567.2404401508,Scherer Steam Generating Station
13251,Screven,Georgia,2.27,-23.29,0.02,2.27,5.39,99.54,69.15,82.4,NA,NA,NA,NA,NA,NA,NA,NA,NA,NA,NA,NA,NA,NA,NA,NA,32.7506,-81.612,87021.52794697107,Cope Station
13253,Seminole,Georgia,1.51,-25.66,0.06,3.29,6.94,105.87,73.54,73.87,NA,NA,NA,NA,NA,NA,NA,NA,NA,NA,NA,NA,NA,NA,NA,NA,30.9388,-84.8688,255749.16090665225,Scherer Steam Generating Station
13255,Spalding,Georgia,1.58,-32.96,0.02,-43.71,6.79,113.5,88.04,89.4,NA,NA,NA,NA,NA,NA,NA,NA,NA,NA,NA,NA,NA,NA,NA,NA,33.2609,-84.2841,49765.38529188501,Scherer Steam Generating Station
13257,Stephens,Georgia,1.58,-34.54,0.02,-15.55,6.6,154.31,94.41,223.99,NA,NA,NA,NA,NA,NA,NA,NA,NA,NA,NA,NA,NA,NA,NA,NA,34.554,-83.2932,157101.67913673804,Plant Bowen
13259,Stewart,Georgia,1.84,-48.11,0.04,24.41,5.94,88.16,60.35,50.28,NA,NA,NA,NA,NA,NA,NA,NA,NA,NA,NA,NA,NA,NA,NA,NA,32.0785,-84.8352,145528.60243974478,Scherer Steam Generating Station
13261,Sumter,Georgia,2.5,-16.67,0.05,-16.22,6.08,115.78,59.24,69.62,2014,244,229,15,0,0,0,0,77,49,38,0,0,244,0,0,32.0399,-84.197,118943.6989447318,Scherer Steam Generating Station
13263,Talbot,Georgia,1.82,-45.39,0.02,23.27,6.71,98.03,65.78,61.49,NA,NA,NA,NA,NA,NA,NA,NA,NA,NA,NA,NA,NA,NA,NA,NA,32.6995,-84.533,78855.56147174683,Scherer Steam Generating Station
13265,Taliaferro,Georgia,2.29,-45.17,0.05,93.91,6.36,107.75,57.78,38.82,NA,NA,NA,NA,NA,NA,NA,NA,NA,NA,NA,NA,NA,NA,NA,NA,33.5661,-82.8788,103034.2762722447,Scherer Steam Generating Station
13267,Tattnall,Georgia,1.52,-29.75,0.03,-30.38,8.57,129.97,85.94,95.08,NA,NA,NA,NA,NA,NA,NA,NA,NA,NA,NA,NA,NA,NA,NA,NA,32.0458,-82.0581,175069.7177359593,Cope Station
13269,Taylor,Georgia,1.62,-33.4,0.03,-12.19,5.9,104.46,73.27,67.96,NA,NA,NA,NA,NA,NA,NA,NA,NA,NA,NA,NA,NA,NA,NA,NA,32.5555,-84.2505,69715.60353623591,Scherer Steam Generating Station
13271,Telfair,Georgia,1.8,-28.19,0.03,-46.62,6.4,108.02,78.37,72.54,NA,NA,NA,NA,NA,NA,NA,NA,NA,NA,NA,NA,NA,NA,NA,NA,31.9298,-82.939,149564.98931918718,Scherer Steam Generating Station
13273,Terrell,Georgia,2.32,-33.73,0.07,22.34,6.65,99.49,66.54,76.8,NA,NA,NA,NA,NA,NA,NA,NA,NA,NA,NA,NA,NA,NA,NA,NA,31.777,-84.437,154159.09399606203,Scherer Steam Generating Station
13275,Thomas,Georgia,1.91,-35.95,0.02,-13.27,5.94,85.5,54.7,30.59,NA,NA,NA,NA,NA,NA,NA,NA,NA,NA,NA,NA,NA,NA,NA,NA,30.8637,-83.9193,191529.43973449295,Deerhaven Generating Station
13277,Tift,Georgia,1.5,-24.76,0.05,-36.67,7.7,121.11,75.27,83.88,NA,NA,NA,NA,NA,NA,NA,NA,NA,NA,NA,NA,NA,NA,NA,NA,31.4574,-83.5266,179699.83453503263,Scherer Steam Generating Station
13279,Toombs,Georgia,1.63,-22.68,0.02,-37.62,8.32,129.3,93.67,102.69,NA,NA,NA,NA,NA,NA,NA,NA,NA,NA,NA,NA,NA,NA,NA,NA,32.1216,-82.3312,173289.0688714674,Scherer Steam Generating Station
13281,Towns,Georgia,0.99,-49.88,0.03,-42.14,5.82,141.7,56.4,76.98,NA,NA,NA,NA,NA,NA,NA,NA,NA,NA,NA,NA,NA,NA,NA,NA,34.9167,-83.7373,128299.43422903978,Bull Run Fossil Plant
13283,Treutlen,Georgia,1.74,-29.46,0.03,-25.94,7.27,113.28,89.66,93.47,NA,NA,NA,NA,NA,NA,NA,NA,NA,NA,NA,NA,NA,NA,NA,NA,32.4039,-82.5673,137110.7916141001,Scherer Steam Generating Station
13285,Troup,Georgia,1.36,-37.22,0.01,-59.87,6.35,111.84,69.07,75.9,NA,NA,NA,NA,NA,NA,NA,NA,NA,NA,NA,NA,NA,NA,NA,NA,33.0335,-85.0284,42064.55925642552,Wansley Plant
13287,Turner,Georgia,2.31,-13.17,0.04,-17.29,6.68,121.04,85.33,104.69,NA,NA,NA,NA,NA,NA,NA,NA,NA,NA,NA,NA,NA,NA,NA,NA,31.7164,-83.6241,150019.95623873037,Scherer Steam Generating Station
13289,Twiggs,Georgia,1.67,-42.35,0.08,-1.26,6.45,83.59,71.45,53.18,NA,NA,NA,NA,NA,NA,NA,NA,NA,NA,NA,NA,NA,NA,NA,NA,32.6672,-83.4271,56251.47548076831,Scherer Steam Generating Station
13291,Union,Georgia,0.97,-46.62,0.02,-46.52,4.65,127.08,54.42,93.47,NA,NA,NA,NA,NA,NA,NA,NA,NA,NA,NA,NA,NA,NA,NA,NA,34.8341,-83.9907,116055.22802889172,Plant Bowen
13293,Upson,Georgia,1.44,-26.3,0.02,-31.37,7.07,121.44,91.79,84.52,NA,NA,NA,NA,NA,NA,NA,NA,NA,NA,NA,NA,NA,NA,NA,NA,32.8813,-84.2994,50139.59883159716,Scherer Steam Generating Station
13295,Walker,Georgia,1.11,-36.28,0.09,-47.47,7.2,135.39,89.56,80.7,2014,354,244,110,0,0,0,0,82,61,41,0,0,0,354,0,34.7356,-85.301,76118.88802542999,Plant Bowen
13297,Walton,Georgia,1.14,-42.78,0.02,-41.06,6.59,120.4,73.94,104.07,NA,NA,NA,NA,NA,NA,NA,NA,NA,NA,NA,NA,NA,NA,NA,NA,33.7816,-83.7339,80287.38456593514,Scherer Steam Generating Station
13299,Ware,Georgia,1.87,-3.88,0.02,-43.08,8.44,148.35,94.54,131.82,NA,NA,NA,NA,NA,NA,NA,NA,NA,NA,NA,NA,NA,NA,NA,NA,31.0538,-82.4237,108964.95287777008,Northside Generating Station
13301,Warren,Georgia,2.68,-25.45,0.03,37.91,6.98,115.02,67.48,58.29,NA,NA,NA,NA,NA,NA,NA,NA,NA,NA,NA,NA,NA,NA,NA,NA,33.4089,-82.6768,112200.5841780196,Scherer Steam Generating Station
13303,Washington,Georgia,2.32,-27.54,0.02,-10.94,6.47,114.33,63.19,44.14,2014,114,88,26,0,0,0,0,69,55,40,0,0,0,114,0,32.9695,-82.7959,94999.22435028928,Scherer Steam Generating Station
13305,Wayne,Georgia,1.3,-29.65,0.04,-25.96,6.99,110.27,84.32,69.31,NA,NA,NA,NA,NA,NA,NA,NA,NA,NA,NA,NA,NA,NA,NA,NA,31.5515,-81.9168,130221.87642840415,Northside Generating Station
13307,Webster,Georgia,1.47,-52.96,0.07,23,5.19,73.57,50.98,34.87,NA,NA,NA,NA,NA,NA,NA,NA,NA,NA,NA,NA,NA,NA,NA,NA,32.0468,-84.5511,132354.97182921937,Scherer Steam Generating Station
13309,Wheeler,Georgia,1.58,-32.45,0.03,-46.01,6.64,109.66,75.89,66.92,NA,NA,NA,NA,NA,NA,NA,NA,NA,NA,NA,NA,NA,NA,NA,NA,32.1171,-82.7246,145825.14159348654,Scherer Steam Generating Station
13311,White,Georgia,1.2,-42.08,0.02,-23.55,4.97,125.63,66.33,93.11,NA,NA,NA,NA,NA,NA,NA,NA,NA,NA,NA,NA,NA,NA,NA,NA,34.6464,-83.7471,122399.6472750747,Plant Bowen
13313,Whitfield,Georgia,1.06,-41.4,0.03,-67.76,6.17,127.98,72.31,54.37,NA,NA,NA,NA,NA,NA,NA,NA,NA,NA,NA,NA,NA,NA,NA,NA,34.8056,-84.9672,75506.83114538502,Plant Bowen
13315,Wilcox,Georgia,2.2,-17.4,0.04,-30.58,6.92,125.81,84.72,72.24,NA,NA,NA,NA,NA,NA,NA,NA,NA,NA,NA,NA,NA,NA,NA,NA,31.9729,-83.4323,125620.16097014608,Scherer Steam Generating Station
13317,Wilkes,Georgia,1.94,-36.1,0.04,74.19,5.94,94.96,68.28,43.5,NA,NA,NA,NA,NA,NA,NA,NA,NA,NA,NA,NA,NA,NA,NA,NA,33.7819,-82.7432,127248.25203888194,Scherer Steam Generating Station
13319,Wilkinson,Georgia,1.87,-27.25,0.06,24.98,6.89,112.09,78.92,83.17,2014,111,80,30,1,0,0,0,145,60,43,0,0,0,111,0,32.8024,-83.1712,65975.56107365864,Scherer Steam Generating Station
13321,Worth,Georgia,1.81,-35.1,0.04,-8.13,6.25,85.47,71.99,75.68,NA,NA,NA,NA,NA,NA,NA,NA,NA,NA,NA,NA,NA,NA,NA,NA,31.5515,-83.8509,167366.40504725545,Scherer Steam Generating Station
15001,Hawaii,Hawaii,1.5,-60.14,0.05,221.7,4.29,32.53,31.89,6.49,2014,358,157,199,2,0,0,0,118,63,52,0,0,0,358,0,19.5985,-155.5185,329572.62334339926,AES Hawaii Generation Plant
15003,Honolulu,Hawaii,1.46,-62.42,0.01,30.16,4.62,38.63,26.2,-16.54,2014,359,348,10,0,1,0,0,195,42,29,2,2,231,108,16,21.5008,-158.1053,21890.436504088884,AES Hawaii Generation Plant
15005,Kalawao,Hawaii,1.88,-58.55,0.02,67.19,5.2,58.71,32.05,12.03,NA,NA,NA,NA,NA,NA,NA,NA,NA,NA,NA,NA,NA,NA,NA,NA,21.1709,-156.9475,121357.13171770005,AES Hawaii Generation Plant
15007,Kauai,Hawaii,1.82,-53.14,0.03,105.19,4.67,40.81,28.39,-14.69,2014,341,338,3,0,0,0,0,56,31,18,0,51,0,290,0,22.0398,-159.5966,174322.44792838563,AES Hawaii Generation Plant
15009,Maui,Hawaii,1.88,-58.55,0.02,67.19,5.2,58.71,32.05,12.03,2014,341,332,8,1,0,0,0,136,38,22,0,0,0,341,0,20.8596,-156.5649,167703.76854635775,AES Hawaii Generation Plant
16001,Ada,Idaho,0.99,-59.58,0.01,-65.34,6.77,120.25,54.67,6.95,2014,365,294,70,0,1,0,0,152,61,40,3,65,259,29,9,43.4511,-116.2412,295153.41908690607,North Valmy Station
16003,Adams,Idaho,1.16,-58.22,0.02,-25.03,4.86,100.22,42.47,7.15,NA,NA,NA,NA,NA,NA,NA,NA,NA,NA,NA,NA,NA,NA,NA,NA,44.8895,-116.4538,448860.8074496429,North Valmy Station
16005,Bannock,Idaho,1.15,-51.14,0.04,-49.07,7.83,131.03,65.33,39.52,2014,365,331,34,0,0,0,0,99,49,24,0,0,0,269,96,42.6685,-112.2246,168131.7229253633,Naughton Power Plant
16007,Bear Lake,Idaho,1.29,-51.62,0.07,-42.3,7.52,128.89,60.05,27.27,NA,NA,NA,NA,NA,NA,NA,NA,NA,NA,NA,NA,NA,NA,NA,NA,42.2848,-111.3297,84228.64014274944,Naughton Power Plant
16009,Benewah,Idaho,1.51,-49.55,0.03,12.56,6.12,99.37,80.37,35.46,2014,362,259,90,13,0,0,0,136,74,35,0,0,0,362,0,47.2176,-116.6587,474207.7930531583,Centralia Power Plant
16011,Bingham,Idaho,1.2,-56.04,0.02,-54.19,6.74,107.77,58.8,17.6,NA,NA,NA,NA,NA,NA,NA,NA,NA,NA,NA,NA,NA,NA,NA,NA,43.2166,-112.3981,219411.81930882225,Naughton Power Plant
16013,Blaine,Idaho,0.97,-64.65,0.01,-61.8,4.82,91.13,36.49,-10.05,NA,NA,NA,NA,NA,NA,NA,NA,NA,NA,NA,NA,NA,NA,NA,NA,43.4119,-113.9802,332887.4964387486,Naughton Power Plant
16015,Boise,Idaho,1.04,-60.77,0.01,-54.9,4.77,94.8,50.98,13.78,NA,NA,NA,NA,NA,NA,NA,NA,NA,NA,NA,NA,NA,NA,NA,NA,43.9891,-115.7303,364446.7009446212,North Valmy Station
16017,Bonner,Idaho,1.1,-63.2,0.01,-54.91,5.66,89.29,50.02,-10.2,2014,321,319,2,0,0,0,0,62,22,10,0,0,0,0,321,48.3,-116.6011,501230.7110022248,Centralia Power Plant
16019,Bonneville,Idaho,1.19,-52.44,0.03,-48.97,6.63,120.84,63.75,30.06,NA,NA,NA,NA,NA,NA,NA,NA,NA,NA,NA,NA,NA,NA,NA,NA,43.3877,-111.6148,199295.3263060172,Naughton Power Plant
16021,Boundary,Idaho,1.08,-59.29,0.02,-48.27,6.93,115.85,59.33,14.83,NA,NA,NA,NA,NA,NA,NA,NA,NA,NA,NA,NA,NA,NA,NA,NA,48.7669,-116.4629,528727.1465105567,Centralia Power Plant
16023,Butte,Idaho,1.26,-59.37,0.04,-37.02,4.95,81.27,58.38,5.07,2014,349,325,24,0,0,0,0,93,49,39,0,0,345,4,0,43.7229,-113.1721,303384.056704114,Naughton Power Plant
16025,Camas,Idaho,1.1,-62.29,0.01,-47.89,4.33,74.04,45.31,-9.67,NA,NA,NA,NA,NA,NA,NA,NA,NA,NA,NA,NA,NA,NA,NA,NA,43.4633,-114.8058,333796.0067827615,TS Power Plant
16027,Canyon,Idaho,1,-58.31,0.01,-66.15,6.68,123.68,63.21,57.12,2014,365,351,13,0,1,0,0,156,36,15,0,0,0,46,319,43.6251,-116.7093,306911.23111315235,North Valmy Station
16029,Caribou,Idaho,1.08,-55.62,0.05,-31.34,8.03,141.87,59.8,31.31,NA,NA,NA,NA,NA,NA,NA,NA,NA,NA,NA,NA,NA,NA,NA,NA,42.7705,-111.5623,137726.99906119762,Naughton Power Plant
16031,Cassia,Idaho,1.53,-49.87,0.01,-62.36,5.91,117.14,60.98,31.11,NA,NA,NA,NA,NA,NA,NA,NA,NA,NA,NA,NA,NA,NA,NA,NA,42.2839,-113.6001,255452.69003446036,Naughton Power Plant
16033,Clark,Idaho,1.43,-63.24,0.02,-61.12,5.36,89.7,64.39,-7.15,NA,NA,NA,NA,NA,NA,NA,NA,NA,NA,NA,NA,NA,NA,NA,NA,44.2839,-112.3512,314832.3989678927,Naughton Power Plant
16035,Clearwater,Idaho,1.3,-51.07,0.03,-11.79,6.14,106.44,69.5,22.03,NA,NA,NA,NA,NA,NA,NA,NA,NA,NA,NA,NA,NA,NA,NA,NA,46.6736,-115.6567,550433.9165859354,Centralia Power Plant
16037,Custer,Idaho,1.11,-62.9,0.02,-38.57,4.43,86.65,48.74,1.13,2014,110,110,0,0,0,0,0,45,22,7,0,0,0,110,0,44.2411,-114.2817,407733.94840743026,Naughton Power Plant
16039,Elmore,Idaho,1.45,-57.29,0.01,-57.1,5.72,97.99,64.41,15.3,NA,NA,NA,NA,NA,NA,NA,NA,NA,NA,NA,NA,NA,NA,NA,NA,43.354,-115.4693,302685.96142428793,TS Power Plant
16041,Franklin,Idaho,1.02,-58.2,0.03,-48.18,8.02,135.64,35.75,7.8,2014,359,331,26,2,0,0,0,105,42,19,0,0,0,359,0,42.1811,-111.8132,111180.83132341845,Naughton Power Plant
16043,Fremont,Idaho,1.18,-62.06,0.02,-53.21,5.19,82.28,42.27,-16.37,NA,NA,NA,NA,NA,NA,NA,NA,NA,NA,NA,NA,NA,NA,NA,NA,44.2288,-111.4819,283713.93724342907,Naughton Power Plant
16045,Gem,Idaho,1.43,-57.58,0.01,-56.32,6.05,117.29,66.93,39.68,NA,NA,NA,NA,NA,NA,NA,NA,NA,NA,NA,NA,NA,NA,NA,NA,44.0615,-116.3975,358623.3476943445,North Valmy Station
16047,Gooding,Idaho,1.58,-52.55,0.01,-64.97,6.56,116.21,61.05,15.1,NA,NA,NA,NA,NA,NA,NA,NA,NA,NA,NA,NA,NA,NA,NA,NA,42.971,-114.8115,285345.63183169405,TS Power Plant
16049,Idaho,Idaho,1.26,-56.23,0.02,-36.06,5.23,103.53,57.8,20.54,NA,NA,NA,NA,NA,NA,NA,NA,NA,NA,NA,NA,NA,NA,NA,NA,45.8441,-115.4675,567942.1791104329,North Valmy Station
16051,Jefferson,Idaho,1.18,-58.75,0.02,-56.68,5.36,84.02,48.15,-6.94,NA,NA,NA,NA,NA,NA,NA,NA,NA,NA,NA,NA,NA,NA,NA,NA,43.8201,-112.3113,268505.3433136244,Naughton Power Plant
16053,Jerome,Idaho,1.9,-45.11,0.01,-59.69,5.89,112.12,64.3,27.82,NA,NA,NA,NA,NA,NA,NA,NA,NA,NA,NA,NA,NA,NA,NA,NA,42.6899,-114.2639,286629.0956267676,TS Power Plant
16055,Kootenai,Idaho,1.32,-57.42,0.04,-34.09,6.79,108.47,58.6,10.3,NA,NA,NA,NA,NA,NA,NA,NA,NA,NA,NA,NA,NA,NA,NA,NA,47.6744,-116.7018,477183.61286782176,Centralia Power Plant
16057,Latah,Idaho,1.31,-53.12,0.02,-23.19,5.84,120.19,47.69,21.15,NA,NA,NA,NA,NA,NA,NA,NA,NA,NA,NA,NA,NA,NA,NA,NA,46.8162,-116.7117,469194.03317837376,Centralia Power Plant
16059,Lemhi,Idaho,1.46,-56.96,0.03,-38.87,4.97,98.05,65.39,14.98,2014,348,213,118,16,1,0,0,155,81,40,0,0,0,348,0,44.9433,-113.9333,445253.1171272053,Naughton Power Plant
16061,Lewis,Idaho,1.7,-56.43,0.03,38.17,7.15,83.11,57.4,-5.38,NA,NA,NA,NA,NA,NA,NA,NA,NA,NA,NA,NA,NA,NA,NA,NA,46.237,-116.4263,496901.70419219055,Centralia Power Plant
16063,Lincoln,Idaho,1.63,-54.88,0.01,-57.18,5.52,101.44,62.96,16.33,NA,NA,NA,NA,NA,NA,NA,NA,NA,NA,NA,NA,NA,NA,NA,NA,43.0024,-114.1383,319694.34525324777,TS Power Plant
16065,Madison,Idaho,1.48,-52.7,0.04,-33.79,5.5,93.34,34.98,-11.93,NA,NA,NA,NA,NA,NA,NA,NA,NA,NA,NA,NA,NA,NA,NA,NA,43.7841,-111.6592,241182.33148064287,Naughton Power Plant
16067,Minidoka,Idaho,1.71,-45.72,0.01,-56.72,6.14,114.55,52.98,22.31,NA,NA,NA,NA,NA,NA,NA,NA,NA,NA,NA,NA,NA,NA,NA,NA,42.8543,-113.6375,278637.3597863349,Naughton Power Plant
16069,Nez Perce,Idaho,1.45,-54.47,0.02,-39.88,6.51,96.14,62.12,17.59,NA,NA,NA,NA,NA,NA,NA,NA,NA,NA,NA,NA,NA,NA,NA,NA,46.3268,-116.7502,470736.3843733324,Centralia Power Plant
16071,Oneida,Idaho,1.19,-59.34,0.03,-56.82,7.21,130.7,45.55,9.73,NA,NA,NA,NA,NA,NA,NA,NA,NA,NA,NA,NA,NA,NA,NA,NA,42.195,-112.5394,168110.26117635958,Naughton Power Plant
16073,Owyhee,Idaho,1.32,-57.31,0.01,-66.07,5.38,106.85,64.77,24.75,NA,NA,NA,NA,NA,NA,NA,NA,NA,NA,NA,NA,NA,NA,NA,NA,42.5814,-116.1699,205707.52287682323,North Valmy Station
16075,Payette,Idaho,1.08,-58.58,0.01,-64.43,6.05,124.46,67.12,57.34,NA,NA,NA,NA,NA,NA,NA,NA,NA,NA,NA,NA,NA,NA,NA,NA,44.0068,-116.7608,348627.7527429422,North Valmy Station
16077,Power,Idaho,1.43,-53.33,0.01,-58.27,7.18,112.58,72.89,27.24,NA,NA,NA,NA,NA,NA,NA,NA,NA,NA,NA,NA,NA,NA,NA,NA,42.693600000000004,-112.8407,212332.9000819531,Naughton Power Plant
16079,Shoshone,Idaho,1.43,-49.09,0.06,63.73,5.92,104.48,74.5,36.56,2014,365,237,114,13,1,0,0,151,79,37,0,0,0,361,4,47.3529,-115.8924,533139.5858310227,Centralia Power Plant
16081,Teton,Idaho,0.97,-69.76,0.04,-57.59,4.85,80.42,32.8,-26.87,NA,NA,NA,NA,NA,NA,NA,NA,NA,NA,NA,NA,NA,NA,NA,NA,43.7594,-111.2076,227782.1803985049,Naughton Power Plant
16083,Twin Falls,Idaho,1.95,-43.86,0.01,-66.44,7.97,148.53,71.96,46.2,NA,NA,NA,NA,NA,NA,NA,NA,NA,NA,NA,NA,NA,NA,NA,NA,42.356,-114.6672,236890.9114544226,TS Power Plant
16085,Valley,Idaho,1.13,-62.11,0.01,-41.48,4.66,80.63,39.85,-8.48,NA,NA,NA,NA,NA,NA,NA,NA,NA,NA,NA,NA,NA,NA,NA,NA,44.7666,-115.5663,450606.1934256486,North Valmy Station
16087,Washington,Idaho,1.42,-53.83,0.01,-49.17,5.24,115.82,58.65,43.62,NA,NA,NA,NA,NA,NA,NA,NA,NA,NA,NA,NA,NA,NA,NA,NA,44.4524,-116.7847,397793.44295669947,North Valmy Station
17001,Adams,Illinois,0.97,-39.16,0.01,-86.83,4.97,78.16,69.57,82.08,2014,213,192,21,0,0,0,0,90,50,37,0,0,213,0,0,39.9879,-91.1885,133271.328387634,Thomas Hill Energy Center
17003,Alexander,Illinois,1.98,-28.92,0.11,-30.93,5.88,84.07,79.29,60.17,NA,NA,NA,NA,NA,NA,NA,NA,NA,NA,NA,NA,NA,NA,NA,NA,37.1915,-89.3375,42600.61153678722,Joppa Steam Plant
17005,Bond,Illinois,1.12,-25.87,0.02,-80.69,5.71,115.85,52.48,54.54,NA,NA,NA,NA,NA,NA,NA,NA,NA,NA,NA,NA,NA,NA,NA,NA,38.8868,-89.4356,70537.29625517136,Prairie State Energy Campus
17007,Boone,Illinois,1.1,-36.76,0.02,-53.42,5.95,119.96,59.37,51.86,NA,NA,NA,NA,NA,NA,NA,NA,NA,NA,NA,NA,NA,NA,NA,NA,42.3231,-88.8234,100119.36621218968,South Oak Creek Plant
17009,Brown,Illinois,1.32,-15.09,0.02,-86.7,5.69,136.22,62.37,128.92,NA,NA,NA,NA,NA,NA,NA,NA,NA,NA,NA,NA,NA,NA,NA,NA,39.9618,-90.7504,100834.43406509155,Dallman Station
17011,Bureau,Illinois,0.89,-46.69,0.02,-78.33,4.05,89.65,53.34,73.68,NA,NA,NA,NA,NA,NA,NA,NA,NA,NA,NA,NA,NA,NA,NA,NA,41.4041,-89.5286,73241.18062964574,Archer Daniels Midland Clinton Power Plant
17013,Calhoun,Illinois,0.86,-41.29,0.02,-80.75,4.34,85.31,57.31,56.94,NA,NA,NA,NA,NA,NA,NA,NA,NA,NA,NA,NA,NA,NA,NA,NA,39.1693,-90.6676,43315.91209993066,Sioux Power Plant
17015,Carroll,Illinois,1.33,-45.06,0.03,-35.24,4.43,86.43,56.38,45.76,NA,NA,NA,NA,NA,NA,NA,NA,NA,NA,NA,NA,NA,NA,NA,NA,42.0687,-89.9343,35749.87859708522,Archer Daniels Midland Clinton Power Plant
17017,Cass,Illinois,1.31,-28.62,0.02,-84.35,6.94,107.07,75.66,109.44,NA,NA,NA,NA,NA,NA,NA,NA,NA,NA,NA,NA,NA,NA,NA,NA,39.9735,-90.2474,60251.62040139159,Dallman Station
17019,Champaign,Illinois,1.09,-45.81,0.01,-77.03,5.8,99.23,51.24,21.3,2014,365,301,63,1,0,0,0,101,61,38,0,0,312,53,0,40.1401,-88.1992,66244.7613532713,Archer Daniels Midland Decatur Power Plant
17021,Christian,Illinois,1.18,-42.28,0.44,-78.94,5.75,88.9,54.52,14.45,NA,NA,NA,NA,NA,NA,NA,NA,NA,NA,NA,NA,NA,NA,NA,NA,39.5458,-89.2773,19513.307756618713,Kincaid Generating Station
17023,Clark,Illinois,0.91,-44.35,0.03,-75.79,4.52,74.57,64.96,83,2014,211,185,26,0,0,0,0,90,51,39,0,0,211,0,0,39.3336,-87.7877,37788.76563361309,Merom Generating Station
17025,Clay,Illinois,1.07,-37.69,0.02,-78.18,5.27,96.05,75.74,107.86,NA,NA,NA,NA,NA,NA,NA,NA,NA,NA,NA,NA,NA,NA,NA,NA,38.7542,-88.4902,27420.550820023363,Newton power station
17027,Clinton,Illinois,0.92,-31.72,0.02,-82.19,4.5,83.96,48.88,49.47,NA,NA,NA,NA,NA,NA,NA,NA,NA,NA,NA,NA,NA,NA,NA,NA,38.6065,-89.4225,42298.34067599058,Prairie State Energy Campus
17029,Coles,Illinois,1.15,-43.58,0.02,-74.55,4.89,68.02,75.94,96.7,NA,NA,NA,NA,NA,NA,NA,NA,NA,NA,NA,NA,NA,NA,NA,NA,39.5203,-88.2217,64994.62598700035,Newton power station
17031,Cook,Illinois,2.04,-19.23,0.01,-53.52,4.76,97.4,41.02,25.79,2014,365,132,225,8,0,0,0,143,80,55,0,49,71,208,37,41.8401,-87.8168,76567.64681319495,Michigan City Generating Station
17033,Crawford,Illinois,1.17,-35.12,0.04,-72.1,5.73,99.91,67.39,83.65,NA,NA,NA,NA,NA,NA,NA,NA,NA,NA,NA,NA,NA,NA,NA,NA,39.0027,-87.7596,22741.427469469774,Merom Generating Station
17035,Cumberland,Illinois,1.07,-45.88,0.03,-77.99,5.12,77.83,66.3,74.42,NA,NA,NA,NA,NA,NA,NA,NA,NA,NA,NA,NA,NA,NA,NA,NA,39.2733,-88.2402,37531.52792261306,Newton power station
17037,DeKalb,Illinois,1.15,-42.81,0.02,-66.58,6.15,116.7,50.08,36.4,NA,NA,NA,NA,NA,NA,NA,NA,NA,NA,NA,NA,NA,NA,NA,NA,41.8935,-88.7703,119774.56647276763,Archer Daniels Midland Clinton Power Plant
17039,De Witt,Illinois,1.14,-38.75,0.03,-80.83,6.17,94.78,68.91,64.51,NA,NA,NA,NA,NA,NA,NA,NA,NA,NA,NA,NA,NA,NA,NA,NA,40.1746,-88.9041,33838.94364066512,Archer Daniels Midland Decatur Power Plant
17041,Douglas,Illinois,1.02,-38.19,0.06,-63.96,5.94,99.7,71.16,92.67,NA,NA,NA,NA,NA,NA,NA,NA,NA,NA,NA,NA,NA,NA,NA,NA,39.7694,-88.2174,58740.98078877616,Archer Daniels Midland Decatur Power Plant
17043,DuPage,Illinois,0.66,-41.03,0.01,-47.16,5.44,124.22,40.66,17.28,2014,234,194,38,2,0,0,0,101,62,38,0,0,180,54,0,41.852,-88.0856,98833.1330391331,Michigan City Generating Station
17045,Edgar,Illinois,1.15,-38.44,0.04,-71.67,5.04,83.26,84.37,105.72,NA,NA,NA,NA,NA,NA,NA,NA,NA,NA,NA,NA,NA,NA,NA,NA,39.6786,-87.7456,38482.77563616595,Cayuga Generating Station
17047,Edwards,Illinois,0.96,-39,0.12,-56.12,6.33,109.37,62.05,90.45,NA,NA,NA,NA,NA,NA,NA,NA,NA,NA,NA,NA,NA,NA,NA,NA,38.4165,-88.0533,25406.007708222,Gibson Generating Station
17049,Effingham,Illinois,0.94,-43.62,0.04,-79.43,4.42,76.5,55.8,51.35,2014,212,187,25,0,0,0,0,90,51,38,0,0,212,0,0,39.0598,-88.5899,30368.07490189429,Newton power station
17051,Fayette,Illinois,1.19,-32.39,0.04,-74.83,5.16,93.97,65.12,79.92,NA,NA,NA,NA,NA,NA,NA,NA,NA,NA,NA,NA,NA,NA,NA,NA,39.0002,-89.0241,65132.16373175493,Newton power station
17053,Ford,Illinois,1.15,-29.6,0.02,-69.86,4.91,99.13,64.39,75.48,NA,NA,NA,NA,NA,NA,NA,NA,NA,NA,NA,NA,NA,NA,NA,NA,40.5972,-88.2233,98733.75163269702,Archer Daniels Midland Decatur Power Plant
17055,Franklin,Illinois,1.53,-20.51,1.96,-80.2,6.06,109.81,100.1,111.93,NA,NA,NA,NA,NA,NA,NA,NA,NA,NA,NA,NA,NA,NA,NA,NA,37.9923,-88.9242,41435.331685370074,Marion Plant
17057,Fulton,Illinois,1.29,-28.56,0.22,-81.68,5.88,107.66,65.84,67.65,NA,NA,NA,NA,NA,NA,NA,NA,NA,NA,NA,NA,NA,NA,NA,NA,40.4728,-90.2075,45453.50715961469,Powerton Generating Station
17059,Gallatin,Illinois,1.06,-38.1,0.54,-43.44,5.78,90,78.31,88.79,NA,NA,NA,NA,NA,NA,NA,NA,NA,NA,NA,NA,NA,NA,NA,NA,37.7628,-88.2305,31643.444516384905,A.B. Brown Generating Station
17061,Greene,Illinois,1.2,-33.38,0.07,-71.72,5.55,97.6,66.64,73.9,NA,NA,NA,NA,NA,NA,NA,NA,NA,NA,NA,NA,NA,NA,NA,NA,39.3562,-90.3905,49806.13164195743,Sioux Power Plant
17063,Grundy,Illinois,0.99,-27.98,0.12,-62.86,5.23,116.05,56.55,58.64,NA,NA,NA,NA,NA,NA,NA,NA,NA,NA,NA,NA,NA,NA,NA,NA,41.2851,-88.4185,117149.88267919276,Schahfer Generating Station
17065,Hamilton,Illinois,1.12,-36.2,0.1,-77.93,4.95,91.45,64.85,90.9,2014,231,185,46,0,0,0,0,93,61,41,0,0,197,34,0,38.0815,-88.5391,57342.09673526027,A.B. Brown Generating Station
17067,Hancock,Illinois,1.18,-39.01,0.02,-85.65,5.07,78.72,58.36,71.83,NA,NA,NA,NA,NA,NA,NA,NA,NA,NA,NA,NA,NA,NA,NA,NA,40.4037,-91.1647,101714.68756258325,Louisa Generating Station
17069,Hardin,Illinois,1.04,-41.88,0.6,-37.06,5.37,95.55,92.33,84.62,NA,NA,NA,NA,NA,NA,NA,NA,NA,NA,NA,NA,NA,NA,NA,NA,37.5182,-88.2668,53055.185774947895,A.B. Brown Generating Station
17071,Henderson,Illinois,1.22,-42.73,0.02,-86.41,4.77,69.51,61.19,57.5,NA,NA,NA,NA,NA,NA,NA,NA,NA,NA,NA,NA,NA,NA,NA,NA,40.818,-90.9251,57302.11128209701,Louisa Generating Station
17073,Henry,Illinois,1.04,-41.32,0.03,-78.33,4.89,93.75,57.55,52.1,NA,NA,NA,NA,NA,NA,NA,NA,NA,NA,NA,NA,NA,NA,NA,NA,41.3531,-90.1314,52367.09830680463,Archer Daniels Midland Clinton Power Plant
17075,Iroquois,Illinois,0.91,-32.44,0.02,-66.81,5.14,101.87,59.96,87.11,NA,NA,NA,NA,NA,NA,NA,NA,NA,NA,NA,NA,NA,NA,NA,NA,40.7473,-87.8243,85149.36617002697,Schahfer Generating Station
17077,Jackson,Illinois,1.09,-33.11,0.16,-69.73,5.2,86.17,56.61,25.53,NA,NA,NA,NA,NA,NA,NA,NA,NA,NA,NA,NA,NA,NA,NA,NA,37.7851,-89.3821,42065.93775877217,Marion Plant
17079,Jasper,Illinois,0.85,-44.3,0.03,-76.49,4.75,87.74,54.77,78.38,NA,NA,NA,NA,NA,NA,NA,NA,NA,NA,NA,NA,NA,NA,NA,NA,39.0101,-88.1538,13448.108872197448,Newton power station
17081,Jefferson,Illinois,1.67,-16.85,0.18,-73.86,5.3,95.32,73.31,87.91,NA,NA,NA,NA,NA,NA,NA,NA,NA,NA,NA,NA,NA,NA,NA,NA,38.3005,-88.924,65186.10600777567,Prairie State Energy Campus
17083,Jersey,Illinois,0.9,-33.11,0.02,-79.64,4.74,92.56,55.06,38.22,2014,233,186,46,1,0,0,0,101,61,39,0,0,198,35,0,39.0855,-90.3565,19859.63859347924,Sioux Power Plant
17085,Jo Daviess,Illinois,1,-49.27,0.01,-38.95,4.25,81.65,44.05,21.87,2014,353,324,28,1,0,0,0,108,49,35,0,0,353,0,0,42.3658,-90.2126,60521.04536474789,Archer Daniels Midland Clinton Power Plant
17087,Johnson,Illinois,1.03,-31.72,0.16,-62.41,5.55,104.88,72.1,79.68,NA,NA,NA,NA,NA,NA,NA,NA,NA,NA,NA,NA,NA,NA,NA,NA,37.4597,-88.8809,18862.2519218544,Marion Plant
17089,Kane,Illinois,1.07,-36.58,0.03,-54.46,6.07,118.56,43.66,5.64,2014,363,324,38,1,0,0,0,101,51,33,0,0,328,35,0,41.9388,-88.4286,112179.1437052218,South Oak Creek Plant
17091,Kankakee,Illinois,1.48,-32.99,0.04,-70.66,5.36,101.39,59.09,40.89,NA,NA,NA,NA,NA,NA,NA,NA,NA,NA,NA,NA,NA,NA,NA,NA,41.1377,-87.8618,70857.64463064728,Schahfer Generating Station
17093,Kendall,Illinois,0.85,-34.85,0.02,-65.56,5.65,127.76,48.91,35.51,NA,NA,NA,NA,NA,NA,NA,NA,NA,NA,NA,NA,NA,NA,NA,NA,41.5906,-88.4288,124629.04037534996,Schahfer Generating Station
17095,Knox,Illinois,1.34,-26.31,0.06,-77.87,7.24,126.2,84.89,100.38,NA,NA,NA,NA,NA,NA,NA,NA,NA,NA,NA,NA,NA,NA,NA,NA,40.9318,-90.2132,59636.47377292935,Edwards Generation Plant
17097,Lake,Illinois,0.87,-44.39,0.02,-85.75,5.02,93.72,43.74,5.28,2014,355,317,33,5,0,0,0,129,51,35,0,0,355,0,0,42.3233,-88.0037,59787.49678111407,South Oak Creek Plant
17099,LaSalle,Illinois,1.15,-34.04,0.03,-73.12,4.61,103.19,60.1,97.12,NA,NA,NA,NA,NA,NA,NA,NA,NA,NA,NA,NA,NA,NA,NA,NA,41.344,-88.8859,105670.28750273988,Edwards Generation Plant
17101,Lawrence,Illinois,1.23,-36.15,0.05,-62.8,5.63,96.17,75.14,107.01,NA,NA,NA,NA,NA,NA,NA,NA,NA,NA,NA,NA,NA,NA,NA,NA,38.72,-87.7268,38866.97642217242,Gibson Generating Station
17103,Lee,Illinois,1.18,-42.23,0.02,-59.37,4.89,102.99,59.5,49.86,NA,NA,NA,NA,NA,NA,NA,NA,NA,NA,NA,NA,NA,NA,NA,NA,41.7461,-89.3003,76037.55804497596,Archer Daniels Midland Clinton Power Plant
17105,Livingston,Illinois,1.4,-22.9,0.03,-69.2,4.8,119.81,60.53,84.18,NA,NA,NA,NA,NA,NA,NA,NA,NA,NA,NA,NA,NA,NA,NA,NA,40.8916,-88.5577,98870.7479755996,Edwards Generation Plant
17107,Logan,Illinois,1.42,-27.53,0.02,-82.28,7.22,118.58,60.92,58.14,NA,NA,NA,NA,NA,NA,NA,NA,NA,NA,NA,NA,NA,NA,NA,NA,40.1245,-89.3675,45755.73495128974,Dallman Station
17109,McDonough,Illinois,1.21,-42.44,0.05,-84.87,5.38,78.94,61.51,71.25,NA,NA,NA,NA,NA,NA,NA,NA,NA,NA,NA,NA,NA,NA,NA,NA,40.4562,-90.6779,85222.92946145694,Powerton Generating Station
17111,McHenry,Illinois,0.96,-33.46,0.03,-54.11,5.84,127.92,57.84,61.79,2014,364,296,65,3,0,0,0,136,57,37,0,0,229,135,0,42.3244,-88.4523,77244.58786295513,South Oak Creek Plant
17113,McLean,Illinois,1.03,-39.48,0.02,-85.12,6.12,115.31,58.63,49.42,2014,363,317,46,0,0,0,0,100,54,36,0,0,339,24,0,40.4909,-88.8473,69042.85812775999,Archer Daniels Midland Decatur Power Plant
17115,Macon,Illinois,1.53,-37.78,0.01,-81.89,6.93,87.97,58.29,25.93,2014,365,259,106,0,0,0,0,90,63,41,0,0,218,147,0,39.86,-88.9616,6145.061046667846,Archer Daniels Midland Decatur Power Plant
17117,Macoupin,Illinois,1.09,-33.3,0.1,-69.94,4.45,79.68,60.9,67.43,2014,214,192,22,0,0,0,0,93,51,38,0,0,214,0,0,39.261,-89.9245,49702.16143648058,Sioux Power Plant
17119,Madison,Illinois,1.11,-17.96,0.03,-82.55,5.64,114.21,68.88,70.26,2014,365,207,149,9,0,0,0,137,77,47,0,0,212,146,7,38.8297,-89.9049,34601.134079777556,Sioux Power Plant
17121,Marion,Illinois,1.41,-30.85,0.02,-77.78,5.42,81.29,82.9,65.19,NA,NA,NA,NA,NA,NA,NA,NA,NA,NA,NA,NA,NA,NA,NA,NA,38.6496,-88.919,64224.97646693555,Newton power station
17123,Marshall,Illinois,1.07,-29.69,0.05,-72.31,5.11,124.72,56.02,86.41,NA,NA,NA,NA,NA,NA,NA,NA,NA,NA,NA,NA,NA,NA,NA,NA,41.0332,-89.3448,55431.72704473929,Edwards Generation Plant
17125,Mason,Illinois,1.18,-28.06,0.09,-68.74,8.75,131.72,78.89,95.07,NA,NA,NA,NA,NA,NA,NA,NA,NA,NA,NA,NA,NA,NA,NA,NA,40.2396,-89.9168,39070.16061718527,Powerton Generating Station
17127,Massac,Illinois,1.22,-34.85,0.2,-50.19,5.66,88.82,105.1,82.59,NA,NA,NA,NA,NA,NA,NA,NA,NA,NA,NA,NA,NA,NA,NA,NA,37.2189,-88.7076,9609.099770635765,Shawnee Fossil Plant
17129,Menard,Illinois,1.23,-36.5,0.05,-78.06,6.46,93.04,59.34,52.08,NA,NA,NA,NA,NA,NA,NA,NA,NA,NA,NA,NA,NA,NA,NA,NA,40.0274,-89.8022,34759.54764443691,Dallman Station
17131,Mercer,Illinois,1.03,-46.09,0.03,-84.36,4.63,69.33,68.76,48.87,NA,NA,NA,NA,NA,NA,NA,NA,NA,NA,NA,NA,NA,NA,NA,NA,41.2053,-90.7414,32039.93681344699,Louisa Generating Station
17133,Monroe,Illinois,0.87,-35.69,0.07,-70.37,4.36,74.03,52.27,33.44,NA,NA,NA,NA,NA,NA,NA,NA,NA,NA,NA,NA,NA,NA,NA,NA,38.2785,-90.1773,18017.12300428391,Rush Island power station
17135,Montgomery,Illinois,1.19,-30.12,0.04,-83.17,5.09,97.57,53.98,62.82,NA,NA,NA,NA,NA,NA,NA,NA,NA,NA,NA,NA,NA,NA,NA,NA,39.231,-89.4789,39984.83648976037,Kincaid Generating Station
17137,Morgan,Illinois,1.32,-27.58,0.03,-80.5,6.29,97.96,68.28,92.16,NA,NA,NA,NA,NA,NA,NA,NA,NA,NA,NA,NA,NA,NA,NA,NA,39.7156,-90.2015,51475.41509483047,Dallman Station
17139,Moultrie,Illinois,1.03,-40.06,0.02,-75.45,5.6,87.22,63.92,82.92,NA,NA,NA,NA,NA,NA,NA,NA,NA,NA,NA,NA,NA,NA,NA,NA,39.6415,-88.6193,34433.95549743931,Archer Daniels Midland Decatur Power Plant
17141,Ogle,Illinois,1.08,-43.14,0.01,-57.93,4.94,104.75,55.82,58.17,NA,NA,NA,NA,NA,NA,NA,NA,NA,NA,NA,NA,NA,NA,NA,NA,42.0426,-89.3207,77718.2315736821,Archer Daniels Midland Clinton Power Plant
17143,Peoria,Illinois,1.2,-29.93,0.04,-84.94,6.27,111.06,58.58,38.34,2014,365,267,98,0,0,0,0,100,63,41,0,0,214,151,0,40.788,-89.76,22870.05859745314,Edwards Generation Plant
17145,Perry,Illinois,1.39,-10.02,0.65,-61.21,5.28,103.86,71.71,100.65,NA,NA,NA,NA,NA,NA,NA,NA,NA,NA,NA,NA,NA,NA,NA,NA,38.0837,-89.367,34124.64044852196,Prairie State Energy Campus
17147,Piatt,Illinois,1.02,-43.91,0.02,-78.93,5.64,83.7,51.2,35.45,NA,NA,NA,NA,NA,NA,NA,NA,NA,NA,NA,NA,NA,NA,NA,NA,40.0104,-88.5911,29997.133098125458,Archer Daniels Midland Decatur Power Plant
17149,Pike,Illinois,1.07,-30.65,0.02,-81,5.65,101.75,70.11,99.56,NA,NA,NA,NA,NA,NA,NA,NA,NA,NA,NA,NA,NA,NA,NA,NA,39.6225,-90.8863,94004.30189297372,Sioux Power Plant
17151,Pope,Illinois,0.99,-40.43,0.25,-53.68,5.13,91.78,66.96,52.71,NA,NA,NA,NA,NA,NA,NA,NA,NA,NA,NA,NA,NA,NA,NA,NA,37.4127,-88.5615,34632.85137404768,Shawnee Fossil Plant
17153,Pulaski,Illinois,1.59,-40.73,0.08,-40.49,5.47,84.14,81.56,63.42,NA,NA,NA,NA,NA,NA,NA,NA,NA,NA,NA,NA,NA,NA,NA,NA,37.2232,-89.1266,23875.157564786867,Joppa Steam Plant
17155,Putnam,Illinois,1.01,-39.05,0.16,-54.01,5.2,122.35,46.71,57.7,NA,NA,NA,NA,NA,NA,NA,NA,NA,NA,NA,NA,NA,NA,NA,NA,41.2045,-89.2858,74633.84022812611,Edwards Generation Plant
17157,Randolph,Illinois,1.41,-13.96,0.14,-53.99,4.7,99.9,64.83,84.66,2014,230,167,59,4,0,0,0,122,71,44,0,0,198,32,0,38.0521,-89.8252,17133.480640561138,Baldwin Energy Station
17159,Richland,Illinois,1.02,-36.91,0.05,-63.07,5.25,99.26,57.07,103.59,NA,NA,NA,NA,NA,NA,NA,NA,NA,NA,NA,NA,NA,NA,NA,NA,38.7124,-88.0851,29939.303940424183,Newton power station
17161,Rock Island,Illinois,1.54,-44.17,0.01,-79.76,5.85,91.42,57.41,18.93,2014,349,315,34,0,0,0,0,74,50,34,0,0,322,27,0,41.4673,-90.5674,41896.89369565109,Muscatine Generating Station
17163,St. Clair,Illinois,1.88,-14.31,0.04,-76.12,5.67,87.17,69.63,58.23,NA,NA,NA,NA,NA,NA,NA,NA,NA,NA,NA,NA,NA,NA,NA,NA,38.4703,-89.9284,30172.99890303912,Baldwin Energy Station
17165,Saline,Illinois,1.25,-31.58,1.36,-39,6.92,102.5,86.59,77.08,NA,NA,NA,NA,NA,NA,NA,NA,NA,NA,NA,NA,NA,NA,NA,NA,37.7531,-88.5407,39259.68719979426,Marion Plant
17167,Sangamon,Illinois,1.78,-31.89,0.04,-78.56,6.86,99.97,59.13,42.9,2014,358,327,31,0,0,0,0,78,50,33,0,0,323,35,0,39.7582,-89.6589,4797.376160319821,Dallman Station
17169,Schuyler,Illinois,1.12,-34.32,0.03,-81.34,5.61,107.25,54.95,96.55,NA,NA,NA,NA,NA,NA,NA,NA,NA,NA,NA,NA,NA,NA,NA,NA,40.158,-90.6151,90193.32183913204,Powerton Generating Station
17171,Scott,Illinois,0.97,-32.18,0.03,-76.57,6.81,121.83,64.43,93.78,NA,NA,NA,NA,NA,NA,NA,NA,NA,NA,NA,NA,NA,NA,NA,NA,39.6441,-90.4747,75749.84707397445,Dallman Station
17173,Shelby,Illinois,1.02,-45.76,0.04,-79.22,4.97,74.98,50.07,36.98,NA,NA,NA,NA,NA,NA,NA,NA,NA,NA,NA,NA,NA,NA,NA,NA,39.3911,-88.8055,53675.85499352858,Archer Daniels Midland Decatur Power Plant
17175,Stark,Illinois,1.13,-40.1,0.06,-72.66,5.55,98.75,64.11,50.84,NA,NA,NA,NA,NA,NA,NA,NA,NA,NA,NA,NA,NA,NA,NA,NA,41.0934,-89.7975,56401.661240898895,Edwards Generation Plant
17177,Stephenson,Illinois,1.53,-33.47,0.02,-45.44,5.21,93.44,59.34,58.97,NA,NA,NA,NA,NA,NA,NA,NA,NA,NA,NA,NA,NA,NA,NA,NA,42.3518,-89.6623,74341.1294738769,Archer Daniels Midland Clinton Power Plant
17179,Tazewell,Illinois,0.89,-38.21,0.02,-85,6.11,110.71,56.21,45.18,NA,NA,NA,NA,NA,NA,NA,NA,NA,NA,NA,NA,NA,NA,NA,NA,40.5075,-89.5134,14479.563620389245,Powerton Generating Station
17181,Union,Illinois,0.99,-23.68,0.06,-65.83,6.16,123.17,71.75,83.53,NA,NA,NA,NA,NA,NA,NA,NA,NA,NA,NA,NA,NA,NA,NA,NA,37.4713,-89.2551,31373.943342256385,Marion Plant
17183,Vermilion,Illinois,1.37,-31.9,0.05,-59.23,4.91,82.86,86.67,92.5,NA,NA,NA,NA,NA,NA,NA,NA,NA,NA,NA,NA,NA,NA,NA,NA,40.1834,-87.7328,38899.54970214253,Cayuga Generating Station
17185,Wabash,Illinois,0.97,-40.3,0.13,-58.78,6.16,98.48,71.82,87.86,NA,NA,NA,NA,NA,NA,NA,NA,NA,NA,NA,NA,NA,NA,NA,NA,38.4461,-87.8443,10629.478265184283,Gibson Generating Station
17187,Warren,Illinois,1.08,-41.25,0.04,-86.55,5.35,85.81,61.96,64.22,NA,NA,NA,NA,NA,NA,NA,NA,NA,NA,NA,NA,NA,NA,NA,NA,40.8488,-90.615,65810.14235083766,Louisa Generating Station
17189,Washington,Illinois,1.01,-26.95,0.06,-75.28,4.65,103.7,45.37,51.75,NA,NA,NA,NA,NA,NA,NA,NA,NA,NA,NA,NA,NA,NA,NA,NA,38.3522,-89.4105,24015.759263254884,Prairie State Energy Campus
17191,Wayne,Illinois,1.13,-32.31,0.04,-75.04,6.05,114.82,76.71,124.3,NA,NA,NA,NA,NA,NA,NA,NA,NA,NA,NA,NA,NA,NA,NA,NA,38.4296,-88.4256,57731.50287583875,Newton power station
17193,White,Illinois,1.02,-40.12,0.16,-61.43,5.73,92.1,82.4,107.49,NA,NA,NA,NA,NA,NA,NA,NA,NA,NA,NA,NA,NA,NA,NA,NA,38.0875,-88.1796,29892.214060331604,A.B. Brown Generating Station
17195,Whiteside,Illinois,1.15,-45.04,0.02,-64.74,4.23,82.74,62.37,75.56,NA,NA,NA,NA,NA,NA,NA,NA,NA,NA,NA,NA,NA,NA,NA,NA,41.7562,-89.9141,25585.65689849761,Archer Daniels Midland Clinton Power Plant
17197,Will,Illinois,1.06,-35.74,0.02,-56.65,5.13,119.86,45.1,15.89,2014,362,248,114,0,0,0,0,97,63,42,0,0,149,213,0,41.445,-87.9786,83874.25072181685,Schahfer Generating Station
17199,Williamson,Illinois,0.95,-31.7,0.43,-75.75,5.98,91.47,71.4,51.21,NA,NA,NA,NA,NA,NA,NA,NA,NA,NA,NA,NA,NA,NA,NA,NA,37.7303,-88.9299,12444.494286406278,Marion Plant
17201,Winnebago,Illinois,1.23,-40.06,0.02,-51.18,6.3,107.69,57.96,47.31,2014,342,306,34,2,0,0,0,105,51,34,0,0,330,12,0,42.3363,-89.1609,103949.82783527234,Archer Daniels Midland Clinton Power Plant
17203,Woodford,Illinois,1.15,-35.82,0.01,-80.9,5.49,117.36,52.32,63.81,NA,NA,NA,NA,NA,NA,NA,NA,NA,NA,NA,NA,NA,NA,NA,NA,40.7883,-89.2113,43666.25115658334,Edwards Generation Plant
18001,Adams,Indiana,0.97,-36.81,0.04,-37.14,6.5,129.93,47.82,70.4,NA,NA,NA,NA,NA,NA,NA,NA,NA,NA,NA,NA,NA,NA,NA,NA,40.7457,-84.9366,104825.01695027263,Whitewater Valley Generating Station
18003,Allen,Indiana,1.13,-36.97,0.05,-14.52,6.5,116.52,66.92,85.74,2014,359,189,164,6,0,0,0,147,74,49,0,0,91,268,0,41.0909,-85.0666,143837.31292542422,Whitewater Valley Generating Station
18005,Bartholomew,Indiana,1.15,-45.75,0.03,-36.08,6.51,116.05,74.17,64.26,2014,364,263,100,1,0,0,0,108,66,40,0,98,146,120,0,39.206,-85.8976,66438.62748462847,Clifty Creek Station
18007,Benton,Indiana,1.08,-30.26,0.03,-51.62,6.37,117.96,75.24,79,NA,NA,NA,NA,NA,NA,NA,NA,NA,NA,NA,NA,NA,NA,NA,NA,40.6063,-87.3109,71920.4230492012,Schahfer Generating Station
18009,Blackford,Indiana,1.47,-31.17,0.06,-48.08,6.53,104.5,75.04,78.51,NA,NA,NA,NA,NA,NA,NA,NA,NA,NA,NA,NA,NA,NA,NA,NA,40.4736,-85.3248,83051.06691399317,Whitewater Valley Generating Station
18011,Boone,Indiana,0.86,-46.54,0.05,-44.55,6.07,109.55,66.16,52.72,2014,183,143,38,2,0,0,0,108,64,42,0,0,183,0,0,40.0508,-86.4687,83095.11726418496,Cayuga Generating Station
18013,Brown,Indiana,0.8,-52.63,0.04,-44.17,5.26,100.5,59.14,52.14,2014,119,112,7,0,0,0,0,71,49,39,0,0,119,0,0,39.1962,-86.2274,86546.22235851857,Clifty Creek Station
18015,Carroll,Indiana,0.85,-34.99,0.03,-36.51,6.51,139.62,64.84,60.14,2014,173,144,28,1,0,0,0,108,58,41,0,0,173,0,0,40.5828,-86.5635,80322.68491827602,Schahfer Generating Station
18017,Cass,Indiana,1.33,-21.22,0.06,-24.05,5.97,120.88,69.12,71.69,NA,NA,NA,NA,NA,NA,NA,NA,NA,NA,NA,NA,NA,NA,NA,NA,40.7615,-86.346,76174.17341867943,Schahfer Generating Station
18019,Clark,Indiana,1.22,-37.31,0.04,-38.15,5.55,117.14,77.61,88.08,2014,335,186,147,2,0,0,0,122,71,48,0,0,104,231,0,38.4772,-85.7073,28241.91822378669,Trimble County Generating Station
18021,Clay,Indiana,1.16,-40.59,0.2,-68.42,4.95,71.58,71.96,64.16,NA,NA,NA,NA,NA,NA,NA,NA,NA,NA,NA,NA,NA,NA,NA,NA,39.3928,-87.1158,49531.10143979512,Merom Generating Station
18023,Clinton,Indiana,0.9,-41.19,0.03,-49.84,5.86,109.73,71.75,66.63,NA,NA,NA,NA,NA,NA,NA,NA,NA,NA,NA,NA,NA,NA,NA,NA,40.3017,-86.4751,91412.30199049556,Cayuga Generating Station
18025,Crawford,Indiana,1.14,-46.65,0.15,-50.65,5.05,87.24,81.19,77.33,NA,NA,NA,NA,NA,NA,NA,NA,NA,NA,NA,NA,NA,NA,NA,NA,38.2924,-86.4517,54447.34477313655,Mill Creek Station
18027,Daviess,Indiana,0.88,-51.52,0.14,-66,6.6,97.96,65.65,51.43,NA,NA,NA,NA,NA,NA,NA,NA,NA,NA,NA,NA,NA,NA,NA,NA,38.7024,-87.072,24936.823594378,Petersburg Generating Station
18029,Dearborn,Indiana,0.83,-54.98,0.2,-51.78,6.06,130.13,66.25,31.78,NA,NA,NA,NA,NA,NA,NA,NA,NA,NA,NA,NA,NA,NA,NA,NA,39.1452,-84.9732,15149.21249941477,Miami Fort Station
18031,Decatur,Indiana,1.07,-44.78,0.03,-53.95,4.76,105.09,57.01,63.69,NA,NA,NA,NA,NA,NA,NA,NA,NA,NA,NA,NA,NA,NA,NA,NA,39.307,-85.5011,63518.77711924525,Clifty Creek Station
18033,DeKalb,Indiana,0.99,-36.22,0.09,3.21,6.18,117.43,72.35,98.1,NA,NA,NA,NA,NA,NA,NA,NA,NA,NA,NA,NA,NA,NA,NA,NA,41.3976,-84.9991,146567.88545667412,Erickson Station
18035,Delaware,Indiana,1.48,-30.95,0.05,-21.01,6.49,97.25,84.01,83.64,2014,240,204,35,1,0,0,0,130,58,38,0,0,150,90,0,40.2275,-85.3969,63748.83305024941,Whitewater Valley Generating Station
18037,Dubois,Indiana,1.05,-43.49,0.07,-71.36,5.13,91.22,45.22,44.45,2014,122,84,38,0,0,0,0,96,64,43,0,0,0,122,0,38.3643,-86.8798,37310.167501731725,Petersburg Generating Station
18039,Elkhart,Indiana,1.2,-36.49,0.07,-8.07,5.74,112.23,61.75,71,2014,360,160,190,10,0,0,0,126,75,53,0,0,38,322,0,41.5974,-85.8587,88600.230259973,Michigan City Generating Station
18041,Fayette,Indiana,1.64,-28.64,0.12,-44.07,8.29,149.47,96.91,125.84,NA,NA,NA,NA,NA,NA,NA,NA,NA,NA,NA,NA,NA,NA,NA,NA,39.64,-85.1788,30251.750780840113,Whitewater Valley Generating Station
18043,Floyd,Indiana,0.75,-45.15,0.05,-50.59,5.67,105.02,73.89,79.07,2014,361,177,181,3,0,0,0,119,71,51,0,0,88,273,0,38.3188,-85.907,29573.887556759957,Mill Creek Station
18045,Fountain,Indiana,1,-42.64,0.1,-55.08,5.27,79.72,81.41,64.44,NA,NA,NA,NA,NA,NA,NA,NA,NA,NA,NA,NA,NA,NA,NA,NA,40.1209,-87.242,27051.51116876332,Cayuga Generating Station
18047,Franklin,Indiana,0.95,-42.63,0.05,-63.36,5.59,142.7,53.2,63.64,NA,NA,NA,NA,NA,NA,NA,NA,NA,NA,NA,NA,NA,NA,NA,NA,39.4149,-85.0602,40195.98998823496,Miami Fort Station
18049,Fulton,Indiana,1.15,-31.72,0.06,-21.36,5.8,101.27,80.23,99.55,NA,NA,NA,NA,NA,NA,NA,NA,NA,NA,NA,NA,NA,NA,NA,NA,41.047,-86.2635,66544.99488224315,Schahfer Generating Station
18051,Gibson,Indiana,1.02,-44.81,0.58,-73.08,7.29,98.41,66.31,62.25,NA,NA,NA,NA,NA,NA,NA,NA,NA,NA,NA,NA,NA,NA,NA,NA,38.3119,-87.5846,17354.96172674602,Gibson Generating Station
18053,Grant,Indiana,1.56,-25.99,0.11,-40.48,7.09,105.54,91.85,105.12,NA,NA,NA,NA,NA,NA,NA,NA,NA,NA,NA,NA,NA,NA,NA,NA,40.5158,-85.6547,102293.62314713508,Whitewater Valley Generating Station
18055,Greene,Indiana,1.11,-42.46,0.26,-49.21,5.12,93.11,75.52,104.81,2014,244,180,64,0,0,0,0,87,61,43,0,0,161,83,0,39.0363,-86.9621,47691.97909757932,Merom Generating Station
18057,Hamilton,Indiana,0.66,-54.27,0.06,-29.11,6.45,105.22,48.16,0.49,2014,358,260,96,2,0,0,0,129,62,40,0,0,114,244,0,40.0725,-86.052,103319.36809396396,Whitewater Valley Generating Station
18059,Hancock,Indiana,0.99,-49.89,0.07,-29.93,6,92.99,63.88,27.85,2014,183,181,2,0,0,0,0,67,45,34,0,0,183,0,0,39.8236,-85.7733,75217.27126321396,Whitewater Valley Generating Station
18061,Harrison,Indiana,0.96,-40.55,0.09,-45.45,4.71,101.03,73.32,84.55,NA,NA,NA,NA,NA,NA,NA,NA,NA,NA,NA,NA,NA,NA,NA,NA,38.1951,-86.1114,23736.434019558597,Mill Creek Station
18063,Hendricks,Indiana,0.73,-46.7,0.05,-41.05,7.74,127.96,67.14,43.46,2014,183,175,8,0,0,0,0,77,47,36,0,0,183,0,0,39.7695,-86.51,80349.31439738796,Cayuga Generating Station
18065,Henry,Indiana,1.25,-37.99,0.04,-44.04,7.36,122.43,75.51,91.17,2014,121,88,32,1,0,0,0,119,60,36,0,0,0,121,0,39.9311,-85.3964,45199.61865397479,Whitewater Valley Generating Station
18067,Howard,Indiana,1.21,-28.56,0.06,-19.92,5.96,104.12,73.42,47.95,2014,261,171,90,0,0,0,0,82,62,43,0,0,0,261,0,40.4836,-86.117,111646.86228230355,Schahfer Generating Station
18069,Huntington,Indiana,1.14,-29.79,0.11,-26.89,7.44,134.98,79.82,143.29,2014,176,168,8,0,0,0,0,80,46,35,0,0,176,0,0,40.8292,-85.4881,124673.71092371712,Whitewater Valley Generating Station
18071,Jackson,Indiana,1.16,-41.87,0.04,-54.65,7.54,137.49,79.41,103.81,2014,181,147,34,0,0,0,0,93,58,42,0,0,181,0,0,38.9064,-86.0375,56851.33019361711,Clifty Creek Station
18073,Jasper,Indiana,1.03,-28.74,0.04,-43.31,5.23,111.33,59.47,55.04,NA,NA,NA,NA,NA,NA,NA,NA,NA,NA,NA,NA,NA,NA,NA,NA,41.023,-87.1161,22813.900001366263,Schahfer Generating Station
18075,Jay,Indiana,1.17,-40.1,0.04,-54.93,6.12,116.49,71.65,85.58,NA,NA,NA,NA,NA,NA,NA,NA,NA,NA,NA,NA,NA,NA,NA,NA,40.438,-85.0057,71221.76764562025,Whitewater Valley Generating Station
18077,Jefferson,Indiana,1.27,-38.31,0.17,-28.99,6.25,122.15,89.04,95.72,NA,NA,NA,NA,NA,NA,NA,NA,NA,NA,NA,NA,NA,NA,NA,NA,38.7858,-85.4385,5523.205192772563,Clifty Creek Station
18079,Jennings,Indiana,1.18,-41.42,0.1,-32.28,7.57,136.2,101.4,130.18,NA,NA,NA,NA,NA,NA,NA,NA,NA,NA,NA,NA,NA,NA,NA,NA,38.9969,-85.628,33942.89180732118,Clifty Creek Station
18081,Johnson,Indiana,0.92,-42.32,0.03,-40.41,6.73,132.9,87.82,97.61,2014,176,170,6,0,0,0,0,71,47,37,0,0,176,0,0,39.49,-86.1016,102206.86941201716,Clifty Creek Station
18083,Knox,Indiana,1.15,-43.84,0.16,-64.47,6.66,92.13,88.81,86.98,2014,348,313,35,0,0,0,0,90,51,34,0,0,348,0,0,38.6891,-87.418,22925.74499722224,Petersburg Generating Station
18085,Kosciusko,Indiana,1.06,-35.97,0.17,-11.39,6.09,108.41,64.91,84.82,NA,NA,NA,NA,NA,NA,NA,NA,NA,NA,NA,NA,NA,NA,NA,NA,41.2441,-85.8607,97561.6957583702,Schahfer Generating Station
18087,LaGrange,Indiana,0.79,-48.4,0.08,-10.73,4.92,91.89,52.99,45.43,NA,NA,NA,NA,NA,NA,NA,NA,NA,NA,NA,NA,NA,NA,NA,NA,41.6426,-85.4265,123781.24859769392,Michigan City Generating Station
18089,Lake,Indiana,1.84,-5.51,0.04,-63.5,5.59,106.86,59.22,59.46,2014,365,129,228,7,1,0,0,155,79,56,1,8,55,295,6,41.4167,-87.3821,37364.71276616623,Schahfer Generating Station
18091,LaPorte,Indiana,1.29,-24.52,0.07,-10.14,6.02,101.1,65.04,57.25,2014,242,173,64,5,0,0,0,126,71,44,0,0,170,72,0,41.546,-86.74,24112.321490418843,Michigan City Generating Station
18093,Lawrence,Indiana,0.94,-47.79,0.05,-63.72,4.93,89.21,68.62,70.76,NA,NA,NA,NA,NA,NA,NA,NA,NA,NA,NA,NA,NA,NA,NA,NA,38.8412,-86.4835,75420.12612694144,Petersburg Generating Station
18095,Madison,Indiana,1.18,-33.22,0.1,-18.2,6.14,106.53,74.96,101.51,2014,335,209,124,2,0,0,0,141,68,43,0,0,72,263,0,40.1616,-85.7194,80915.79482637269,Whitewater Valley Generating Station
18097,Marion,Indiana,1.61,-31.49,0.05,-15.26,7.04,123.59,78.21,64.54,2014,365,156,202,6,1,0,0,191,77,53,0,9,97,258,1,39.7817,-86.1385,106506.5960574392,Whitewater Valley Generating Station
18099,Marshall,Indiana,1.09,-28.42,0.04,-26.28,5.89,126.97,69.52,117.67,NA,NA,NA,NA,NA,NA,NA,NA,NA,NA,NA,NA,NA,NA,NA,NA,41.3248,-86.2618,64974.059376537145,Schahfer Generating Station
18101,Martin,Indiana,1.08,-49.67,0.29,-47.08,5.24,80.45,73.56,59.28,NA,NA,NA,NA,NA,NA,NA,NA,NA,NA,NA,NA,NA,NA,NA,NA,38.708,-86.8031,43960.31798089682,Petersburg Generating Station
18103,Miami,Indiana,1.2,-33.1,0.07,-17.64,5.01,89.05,57.54,37.01,NA,NA,NA,NA,NA,NA,NA,NA,NA,NA,NA,NA,NA,NA,NA,NA,40.7695,-86.045,96142.50158553004,Schahfer Generating Station
18105,Monroe,Indiana,0.9,-55.89,0.04,-68.06,4.81,88.38,50.95,43.19,2014,346,274,71,0,1,0,0,157,58,33,0,0,0,346,0,39.1609,-86.5231,86070.09813191941,Merom Generating Station
18107,Montgomery,Indiana,0.91,-43.25,0.05,-44.41,6.14,115.31,68.55,67.88,2014,149,92,57,0,0,0,0,77,63,44,0,0,0,149,0,40.0404,-86.8933,47435.64639312229,Cayuga Generating Station
18109,Morgan,Indiana,0.84,-44.91,0.03,-47.12,6.35,115.64,91.42,80.14,2014,181,147,34,0,0,0,0,97,64,43,0,0,181,0,0,39.4816,-86.4462,97396.5487721622,Cayuga Generating Station
18111,Newton,Indiana,1.08,-22.23,0.03,-55.21,5.01,107.7,68.53,74.33,NA,NA,NA,NA,NA,NA,NA,NA,NA,NA,NA,NA,NA,NA,NA,NA,40.9558,-87.3976,42696.33837819839,Schahfer Generating Station
18113,Noble,Indiana,1.01,-34.84,0.1,-7.38,5.61,111.07,79.94,110.59,NA,NA,NA,NA,NA,NA,NA,NA,NA,NA,NA,NA,NA,NA,NA,NA,41.3986,-85.4175,129529.90142573722,Michigan City Generating Station
18115,Ohio,Indiana,0.9,-44.41,0.1,-50.85,5.18,137.23,63.83,75.38,NA,NA,NA,NA,NA,NA,NA,NA,NA,NA,NA,NA,NA,NA,NA,NA,38.9501,-84.9652,11112.592956828616,East Bend Generating Station
18117,Orange,Indiana,1.12,-42.3,0.09,-51.33,5.39,98.04,70.17,89.95,NA,NA,NA,NA,NA,NA,NA,NA,NA,NA,NA,NA,NA,NA,NA,NA,38.5418,-86.495,66097.35283396808,Petersburg Generating Station
18119,Owen,Indiana,1.15,-33.56,0.05,-58.26,5.93,119.02,78.66,113.79,NA,NA,NA,NA,NA,NA,NA,NA,NA,NA,NA,NA,NA,NA,NA,NA,39.3128,-86.8377,64154.55875793926,Merom Generating Station
18121,Parke,Indiana,1.08,-43.34,0.07,-61.71,5.04,75.18,63.83,43.88,NA,NA,NA,NA,NA,NA,NA,NA,NA,NA,NA,NA,NA,NA,NA,NA,39.7736,-87.2064,25178.71050165957,Cayuga Generating Station
18123,Perry,Indiana,1.1,-42.82,0.06,-74.55,5.12,94.32,59.43,52.97,2014,175,131,43,1,0,0,0,101,64,45,0,0,175,0,0,38.0796,-86.638,38991.77777734616,Rockport Plant
18125,Pike,Indiana,0.93,-49.38,1.1,-53.83,6.36,99.6,63.14,49.23,NA,NA,NA,NA,NA,NA,NA,NA,NA,NA,NA,NA,NA,NA,NA,NA,38.3988,-87.2322,14484.44390585996,Petersburg Generating Station
18127,Porter,Indiana,1.1,-16.11,0.1,-40.7,6.1,138.38,56.69,33.43,2014,363,190,168,5,0,0,0,115,74,48,0,0,72,254,37,41.4603,-87.0672,27353.21556258596,Schahfer Generating Station
18129,Posey,Indiana,0.75,-46.12,0.11,-69.38,6.22,87.76,65.49,72.64,2014,181,147,34,0,0,0,0,100,67,43,0,0,181,0,0,38.0218,-87.8685,13247.447160455748,A.B. Brown Generating Station
18131,Pulaski,Indiana,1.28,-23.21,0.05,-18.12,6.5,134.63,67.44,91.06,NA,NA,NA,NA,NA,NA,NA,NA,NA,NA,NA,NA,NA,NA,NA,NA,41.0419,-86.6988,33455.44272737625,Schahfer Generating Station
18133,Putnam,Indiana,0.99,-42.38,0.03,-58.57,5.63,101.31,59.72,54.64,NA,NA,NA,NA,NA,NA,NA,NA,NA,NA,NA,NA,NA,NA,NA,NA,39.6663,-86.845,57465.74317229951,Cayuga Generating Station
18135,Randolph,Indiana,1.33,-41.89,0.07,-49.86,5.99,111.47,64.87,64.45,NA,NA,NA,NA,NA,NA,NA,NA,NA,NA,NA,NA,NA,NA,NA,NA,40.1576,-85.0114,40688.62431640414,Whitewater Valley Generating Station
18137,Ripley,Indiana,0.94,-44.34,0.07,-56.93,5.6,132.17,65.93,81.5,NA,NA,NA,NA,NA,NA,NA,NA,NA,NA,NA,NA,NA,NA,NA,NA,39.1035,-85.2624,39756.6332589872,Miami Fort Station
18139,Rush,Indiana,1.49,-41.09,0.04,-46.28,6.5,114.05,83,86.09,NA,NA,NA,NA,NA,NA,NA,NA,NA,NA,NA,NA,NA,NA,NA,NA,39.62,-85.4658,52939.29358823943,Whitewater Valley Generating Station
18141,St. Joseph,Indiana,1.32,-24.54,0.03,-25.57,6.16,120.76,62.48,87.47,2014,365,222,139,4,0,0,0,129,71,45,0,18,132,215,0,41.6167,-86.2899,52899.736753901576,Michigan City Generating Station
18143,Scott,Indiana,1.18,-42.17,0.48,-30.34,6.67,124.99,101.6,128.71,NA,NA,NA,NA,NA,NA,NA,NA,NA,NA,NA,NA,NA,NA,NA,NA,38.6851,-85.7475,29173.31137974499,Clifty Creek Station
18145,Shelby,Indiana,1.2,-44.58,0.06,-30.05,5.68,115.15,73.6,52.2,2014,182,157,25,0,0,0,0,100,58,42,0,0,182,0,0,39.5237,-85.7917,82903.86364719897,Whitewater Valley Generating Station
18147,Spencer,Indiana,0.98,-49.69,0.1,-80.44,5.1,76.05,52.59,31.09,2014,121,86,35,0,0,0,0,95,64,40,0,0,0,121,0,38.0141,-87.0077,10145.1477395217,Rockport Plant
18149,Starke,Indiana,1.28,-24.67,0.04,-38.52,5.73,109.74,81.61,86.29,NA,NA,NA,NA,NA,NA,NA,NA,NA,NA,NA,NA,NA,NA,NA,NA,41.2809,-86.6476,32337.728876575708,Schahfer Generating Station
18151,Steuben,Indiana,0.91,-44.75,0.04,-26.44,5.38,91.17,62.67,51.12,NA,NA,NA,NA,NA,NA,NA,NA,NA,NA,NA,NA,NA,NA,NA,NA,41.6439,-85.0009,119868.26521108596,Erickson Station
18153,Sullivan,Indiana,1.16,-39.21,0.47,-50.34,4.37,75.64,78.03,96.21,NA,NA,NA,NA,NA,NA,NA,NA,NA,NA,NA,NA,NA,NA,NA,NA,39.0888,-87.4147,8631.063689926339,Merom Generating Station
18155,Switzerland,Indiana,0.95,-49.55,0.08,-60.65,4.98,121.38,69.77,72.99,NA,NA,NA,NA,NA,NA,NA,NA,NA,NA,NA,NA,NA,NA,NA,NA,38.8262,-85.0369,8612.742472861506,Ghent Generating Station
18157,Tippecanoe,Indiana,0.9,-40.22,0.03,-57.75,6.36,124.8,65.91,30.66,2014,316,228,87,1,0,0,0,128,60,34,0,0,0,316,0,40.3886,-86.8941,68800.93691629829,Cayuga Generating Station
18159,Tipton,Indiana,1.02,-37.3,0.16,0.45,6.56,108.2,63.31,56.88,NA,NA,NA,NA,NA,NA,NA,NA,NA,NA,NA,NA,NA,NA,NA,NA,40.3113,-86.0519,113726.79920548404,Whitewater Valley Generating Station
18161,Union,Indiana,1.21,-38.46,0.37,-40.72,7,150.22,65.02,79.86,NA,NA,NA,NA,NA,NA,NA,NA,NA,NA,NA,NA,NA,NA,NA,NA,39.6256,-84.9251,19773.552504641662,Whitewater Valley Generating Station
18163,Vanderburgh,Indiana,1.09,-38.74,0.07,-81.85,7.31,83.76,74,82.62,2014,365,179,182,4,0,0,0,108,74,51,0,2,132,231,0,38.0249,-87.5859,25297.422260127925,Warrick Power Plant
18165,Vermillion,Indiana,1,-45.84,0.26,-68.27,4.85,59.51,76.16,44.31,NA,NA,NA,NA,NA,NA,NA,NA,NA,NA,NA,NA,NA,NA,NA,NA,39.8538,-87.464,8329.041811778232,Cayuga Generating Station
18167,Vigo,Indiana,1.13,-40.12,0.06,-69.79,6.01,73.52,81.53,89.84,2014,354,194,158,2,0,0,0,134,67,46,0,0,80,274,0,39.4306,-87.39,41414.14673391742,Merom Generating Station
18169,Wabash,Indiana,1.36,-27,0.31,-2.95,6.71,110.88,72.19,106.97,2014,336,304,30,2,0,0,0,108,50,36,0,0,336,0,0,40.8456,-85.794,111304.90913218656,Schahfer Generating Station
18171,Warren,Indiana,0.93,-46.43,0.09,-45.28,5.4,81.55,80.03,46.57,NA,NA,NA,NA,NA,NA,NA,NA,NA,NA,NA,NA,NA,NA,NA,NA,40.3469,-87.3533,47456.292377308186,Cayuga Generating Station
18173,Warrick,Indiana,0.72,-51.4,0.25,-72.49,6.02,82.42,60.5,42.16,2014,183,140,41,2,0,0,0,105,67,44,0,0,183,0,0,38.0922,-87.2721,20398.65857058357,Warrick Power Plant
18175,Washington,Indiana,0.96,-41.43,0.1,-43.44,5.62,118.62,84.74,133.39,NA,NA,NA,NA,NA,NA,NA,NA,NA,NA,NA,NA,NA,NA,NA,NA,38.6,-86.1053,60279.69770230894,Trimble County Generating Station
18177,Wayne,Indiana,1.5,-37.52,0.05,-64.31,8.6,134.42,73.53,86.73,NA,NA,NA,NA,NA,NA,NA,NA,NA,NA,NA,NA,NA,NA,NA,NA,39.8644,-85.0098,11990.038801263516,Whitewater Valley Generating Station
18179,Wells,Indiana,1.03,-32.36,0.08,-35.36,7.62,144.44,64.83,113.36,NA,NA,NA,NA,NA,NA,NA,NA,NA,NA,NA,NA,NA,NA,NA,NA,40.7292,-85.2212,106601.19628332228,Whitewater Valley Generating Station
18181,White,Indiana,1.03,-33.99,0.04,-53.42,7.35,122.75,73.96,48.3,NA,NA,NA,NA,NA,NA,NA,NA,NA,NA,NA,NA,NA,NA,NA,NA,40.7498,-86.8655,53479.751125310584,Schahfer Generating Station
18183,Whitley,Indiana,0.83,-42.08,0.17,13.95,6.56,109.91,71.03,97.34,2014,356,240,114,2,0,0,0,125,65,39,0,45,0,311,0,41.1394,-85.5051,127712.3003987267,Schahfer Generating Station
19001,Adair,Iowa,1.13,-44.72,0.02,-63.35,5.33,123.81,47.06,65.15,NA,NA,NA,NA,NA,NA,NA,NA,NA,NA,NA,NA,NA,NA,NA,NA,41.3307,-94.471,115734.2029864496,Walter Scott Jr. Energy Center
19003,Adams,Iowa,1.47,-42.46,0.01,-60.42,6.14,120.63,51.93,60.27,NA,NA,NA,NA,NA,NA,NA,NA,NA,NA,NA,NA,NA,NA,NA,NA,41.029,-94.6992,97112.36281737206,Walter Scott Jr. Energy Center
19005,Allamakee,Iowa,1.08,-49.07,0.01,-35.51,5.19,107.9,44.81,35.9,NA,NA,NA,NA,NA,NA,NA,NA,NA,NA,NA,NA,NA,NA,NA,NA,43.2843,-91.3781,18168.43164671683,Lansing power station
19007,Appanoose,Iowa,0.94,-52.97,0.23,-50.86,5.46,88.04,46.88,38.32,NA,NA,NA,NA,NA,NA,NA,NA,NA,NA,NA,NA,NA,NA,NA,NA,40.7432,-92.8686,47415.00118639723,Ottumwa Generating Station
19009,Audubon,Iowa,1.2,-48.53,0.01,-63.39,4.61,100.91,52.01,47.36,NA,NA,NA,NA,NA,NA,NA,NA,NA,NA,NA,NA,NA,NA,NA,NA,41.6846,-94.9058,95410.05746158176,North Omaha Station
19011,Benton,Iowa,0.94,-53.54,0.01,-62.2,4.85,83.08,46.39,21.28,NA,NA,NA,NA,NA,NA,NA,NA,NA,NA,NA,NA,NA,NA,NA,NA,42.0802,-92.0657,35856.30458353506,Archer Daniels Midland Cedar Rapids Power Plant
19013,Black Hawk,Iowa,1.44,-33.77,0.02,-37.69,7.52,132.65,65.38,65.05,2014,364,190,173,1,0,0,0,117,68,50,0,0,0,364,0,42.4701,-92.3088,79449.66108661039,Archer Daniels Midland Cedar Rapids Power Plant
19015,Boone,Iowa,1.04,-33.25,0.16,-11.72,6.58,159.43,62.12,125.45,NA,NA,NA,NA,NA,NA,NA,NA,NA,NA,NA,NA,NA,NA,NA,NA,42.0365,-93.9316,155097.13541963187,Ottumwa Generating Station
19017,Bremer,Iowa,0.89,-50.74,0.02,-41.38,5.83,111.49,37.81,30.17,2014,212,195,17,0,0,0,0,87,48,37,0,0,212,0,0,42.7746,-92.3181,107800.48937369138,Archer Daniels Midland Cedar Rapids Power Plant
19019,Buchanan,Iowa,1.03,-43.75,0.01,-44.86,6.22,118.68,56.53,63.55,NA,NA,NA,NA,NA,NA,NA,NA,NA,NA,NA,NA,NA,NA,NA,NA,42.4708,-91.8379,60819.621551560835,Prairie Creek Generating Station
19021,Buena Vista,Iowa,1.68,-32.41,0.01,-48.46,6.47,162.43,50.99,71.94,NA,NA,NA,NA,NA,NA,NA,NA,NA,NA,NA,NA,NA,NA,NA,NA,42.7355,-95.1511,110702.76802876558,George Neal Station South
19023,Butler,Iowa,1.06,-45.72,0.01,-48.82,5.36,113.75,47.5,39.18,NA,NA,NA,NA,NA,NA,NA,NA,NA,NA,NA,NA,NA,NA,NA,NA,42.7316,-92.7902,127708.98575618405,Archer Daniels Midland Cedar Rapids Power Plant
19025,Calhoun,Iowa,1.17,-48.47,0.01,-45.92,6,119.45,57.95,73.13,NA,NA,NA,NA,NA,NA,NA,NA,NA,NA,NA,NA,NA,NA,NA,NA,42.3852,-94.6404,142233.13407095065,George Neal Station South
19027,Carroll,Iowa,1.4,-44.63,0.01,-63.4,5.74,117.8,54.24,53.72,NA,NA,NA,NA,NA,NA,NA,NA,NA,NA,NA,NA,NA,NA,NA,NA,42.0362,-94.8605,119725.71967265676,North Omaha Station
19029,Cass,Iowa,1.58,-41.29,0.01,-60.37,5.52,117.05,64.32,78.42,NA,NA,NA,NA,NA,NA,NA,NA,NA,NA,NA,NA,NA,NA,NA,NA,41.3315,-94.9278,78059.48780000239,Walter Scott Jr. Energy Center
19031,Cedar,Iowa,0.98,-43.73,0.01,-65.17,4.64,94.94,45.1,25.87,NA,NA,NA,NA,NA,NA,NA,NA,NA,NA,NA,NA,NA,NA,NA,NA,41.7723,-91.1324,42990.14013071258,Muscatine Generating Station
19033,Cerro Gordo,Iowa,1.37,-36.01,0.01,-47.59,5.84,127.09,55.54,56.6,2014,348,346,2,0,0,0,0,52,31,16,0,0,0,0,348,43.0816,-93.2608,172567.84313063664,Lansing power station
19035,Cherokee,Iowa,1.33,-40.29,0.01,-39.14,5.67,135.95,54.09,73.42,NA,NA,NA,NA,NA,NA,NA,NA,NA,NA,NA,NA,NA,NA,NA,NA,42.7356,-95.6238,77108.30187759733,George Neal Station North
19037,Chickasaw,Iowa,0.93,-50.5,0.01,-41.77,5.35,105.81,48.66,36.55,NA,NA,NA,NA,NA,NA,NA,NA,NA,NA,NA,NA,NA,NA,NA,NA,43.0601,-92.3177,98524.2674957195,Lansing power station
19039,Clarke,Iowa,0.95,-47.27,0.04,-69.89,5.76,130.06,53.73,72.52,NA,NA,NA,NA,NA,NA,NA,NA,NA,NA,NA,NA,NA,NA,NA,NA,41.029,-93.7852,103689.47513777103,Ottumwa Generating Station
19041,Clay,Iowa,1.39,-39.91,0.01,-49.28,6.51,138.76,57.04,70.46,NA,NA,NA,NA,NA,NA,NA,NA,NA,NA,NA,NA,NA,NA,NA,NA,43.0826,-95.1509,131262.276343491,George Neal Station North
19043,Clayton,Iowa,0.97,-51.58,0.01,-50.63,5.44,95.57,47.73,41.64,NA,NA,NA,NA,NA,NA,NA,NA,NA,NA,NA,NA,NA,NA,NA,NA,42.8447,-91.3414,56517.2503565701,Lansing power station
19045,Clinton,Iowa,1.18,-42.71,0.01,-64.22,4.53,80,51.26,31.5,2014,365,184,177,4,0,0,0,124,71,50,0,0,95,270,0,41.898,-90.532,28113.15426069888,Archer Daniels Midland Clinton Power Plant
19047,Crawford,Iowa,1.19,-50.8,0.01,-61.38,4.96,116.99,51.41,57.94,NA,NA,NA,NA,NA,NA,NA,NA,NA,NA,NA,NA,NA,NA,NA,NA,42.0372,-95.382,86112.64168974993,George Neal Station South
19049,Dallas,Iowa,0.81,-54.83,0.04,-70.11,5.7,105.74,52.02,47.73,NA,NA,NA,NA,NA,NA,NA,NA,NA,NA,NA,NA,NA,NA,NA,NA,41.6849,-94.0398,140265.05210014517,Ottumwa Generating Station
19051,Davis,Iowa,0.87,-52.23,0.09,-65.46,4.66,84.02,48.91,46.16,NA,NA,NA,NA,NA,NA,NA,NA,NA,NA,NA,NA,NA,NA,NA,NA,40.7477,-92.4097,40751.154477297816,Ottumwa Generating Station
