"county","county_ascii","county_full","county_fips","state_id","state_name","lat","lng","population"
"Los Angeles","Los Angeles","Los Angeles County","06037","CA","California","34.3209","-118.2247","10019635"
"Cook","Cook","Cook County","17031","IL","Illinois","41.8401","-87.8168","5265398"
"Harris","Harris","Harris County","48201","TX","Texas","29.8577","-95.3936","4697957"
"Maricopa","Maricopa","Maricopa County","04013","AZ","Arizona","33.3490","-112.4915","4367186"
"San Diego","San Diego","San Diego County","06073","CA","California","33.0343","-116.7350","3296317"
"Orange","Orange","Orange County","06059","CA","California","33.7031","-117.7609","3182923"
"Kings","Kings","Kings County","36047","NY","New York","40.6395","-73.9385","2712360"
"Miami-Dade","Miami-Dade","Miami-Dade County","12086","FL","Florida","25.6150","-80.5623","2690113"
"Dallas","Dallas","Dallas County","48113","TX","Texas","32.7666","-96.7778","2604722"
"Riverside","Riverside","Riverside County","06065","CA","California","33.7436","-115.9938","2409331"
"Queens","Queens","Queens County","36081","NY","New York","40.7023","-73.8203","2393104"
"King","King","King County","53033","WA","Washington","47.4902","-121.8052","2240876"
"Clark","Clark","Clark County","32003","NV","Nevada","36.2152","-115.0135","2231147"
"San Bernardino","San Bernardino","San Bernardino County","06071","CA","California","34.8414","-116.1784","2171071"
"Tarrant","Tarrant","Tarrant County","48439","TX","Texas","32.7719","-97.2911","2091953"
"Bexar","Bexar","Bexar County","48029","TX","Texas","29.4489","-98.5200","1990522"
"Broward","Broward","Broward County","12011","FL","Florida","26.1523","-80.4871","1934551"
"Santa Clara","Santa Clara","Santa Clara County","06085","CA","California","37.2318","-121.6951","1932022"
"Wayne","Wayne","Wayne County","26163","MI","Michigan","42.2819","-83.2822","1789781"
"Alameda","Alameda","Alameda County","06001","CA","California","37.6469","-121.8888","1673133"
"New York","New York","New York County","36061","NY","New York","40.7785","-73.9674","1669127"
"Middlesex","Middlesex","Middlesex County","25017","MA","Massachusetts","42.4856","-71.3918","1623411"
"Philadelphia","Philadelphia","Philadelphia County","42101","PA","Pennsylvania","40.0077","-75.1339","1596865"
"Sacramento","Sacramento","Sacramento County","06067","CA","California","38.4493","-121.3443","1571767"
"Suffolk","Suffolk","Suffolk County","36103","NY","New York","40.8686","-72.8448","1522998"
"Palm Beach","Palm Beach","Palm Beach County","12099","FL","Florida","26.6476","-80.4655","1481233"
"Bronx","Bronx","Bronx County","36005","NY","New York","40.8501","-73.8660","1468262"
"Hillsborough","Hillsborough","Hillsborough County","12057","FL","Florida","27.9291","-82.3091","1444359"
"Orange","Orange","Orange County","12095","FL","Florida","28.5145","-81.3236","1409949"
"Nassau","Nassau","Nassau County","36059","NY","New York","40.7328","-73.5865","1391678"
"Franklin","Franklin","Franklin County","39049","OH","Ohio","39.9695","-83.0093","1313598"
"Oakland","Oakland","Oakland County","26125","MI","Michigan","42.6604","-83.3858","1271983"
"Hennepin","Hennepin","Hennepin County","27053","MN","Minnesota","45.0045","-93.4770","1270283"
"Travis","Travis","Travis County","48453","TX","Texas","30.3344","-97.7820","1267795"
"Cuyahoga","Cuyahoga","Cuyahoga County","39035","OH","Ohio","41.4243","-81.6586","1263667"
"Allegheny","Allegheny","Allegheny County","42003","PA","Pennsylvania","40.4688","-79.9812","1246116"
"Salt Lake","Salt Lake","Salt Lake County","49035","UT","Utah","40.6673","-111.9236","1173331"
"Contra Costa","Contra Costa","Contra Costa County","06013","CA","California","37.9192","-121.9277","1161643"
"Fairfax","Fairfax","Fairfax County","51059","VA","Virginia","38.8368","-77.2770","1146825"
"Wake","Wake","Wake County","37183","NC","North Carolina","35.7903","-78.6503","1112883"
"Mecklenburg","Mecklenburg","Mecklenburg County","37119","NC","North Carolina","35.2467","-80.8328","1100984"
"Montgomery","Montgomery","Montgomery County","24031","MD","Maryland","39.1363","-77.2042","1057201"
"Fulton","Fulton","Fulton County","13121","GA","Georgia","33.7903","-84.4670","1054286"
"Collin","Collin","Collin County","48085","TX","Texas","33.1880","-96.5724","1039812"
"Pima","Pima","Pima County","04019","AZ","Arizona","32.0974","-111.7899","1035063"
"Honolulu","Honolulu","Honolulu County","15003","HI","Hawaii","21.5008","-158.1053","1015167"
"Fresno","Fresno","Fresno County","06019","CA","California","36.7582","-119.6493","1003150"
"St. Louis","St. Louis","St. Louis County","29189","MO","Missouri","38.6407","-90.4434","1001982"
"Westchester","Westchester","Westchester County","36119","NY","New York","41.1624","-73.7561","999723"
"Duval","Duval","Duval County","12031","FL","Florida","30.3316","-81.6708","983153"
"Marion","Marion","Marion County","18097","IN","Indiana","39.7817","-86.1385","969542"
"Pinellas","Pinellas","Pinellas County","12103","FL","Florida","27.9200","-82.7256","957989"
"Prince George's","Prince George's","Prince George's County","24033","MD","Maryland","38.8295","-76.8473","957767"
"Fairfield","Fairfield","Fairfield County","09001","CT","Connecticut","41.2710","-73.3893","956446"
"Bergen","Bergen","Bergen County","34003","NJ","New Jersey","40.9597","-74.0742","952979"
"Erie","Erie","Erie County","36029","NY","New York","42.7640","-78.7323","949715"
"Gwinnett","Gwinnett","Gwinnett County","13135","GA","Georgia","33.9617","-84.0236","948505"
"Milwaukee","Milwaukee","Milwaukee County","55079","WI","Wisconsin","43.0072","-87.9669","939123"
"DuPage","DuPage","DuPage County","17043","IL","Illinois","41.8520","-88.0856","934094"
"Shelby","Shelby","Shelby County","47157","TN","Tennessee","35.1842","-89.8940","929178"
"Pierce","Pierce","Pierce County","53053","WA","Washington","47.0241","-122.1046","910225"
"Kern","Kern","Kern County","06029","CA","California","35.3426","-118.7301","905644"
"Hartford","Hartford","Hartford County","09003","CT","Connecticut","41.8064","-72.7329","898636"
"Denton","Denton","Denton County","48121","TX","Texas","33.2055","-97.1168","885012"
"Macomb","Macomb","Macomb County","26099","MI","Michigan","42.6957","-82.9323","879123"
"San Francisco","San Francisco","San Francisco County","06075","CA","California","37.7558","-122.4449","865933"
"Hidalgo","Hidalgo","Hidalgo County","48215","TX","Texas","26.3969","-98.1812","865677"
"New Haven","New Haven","New Haven County","09009","CT","Connecticut","41.4106","-72.9321","864751"
"El Paso","El Paso","El Paso County","48141","TX","Texas","31.7686","-106.2348","860485"
"Middlesex","Middlesex","Middlesex County","34023","NJ","New Jersey","40.4392","-74.4117","858770"
"Worcester","Worcester","Worcester County","25027","MA","Massachusetts","42.3514","-71.9077","856858"
"Essex","Essex","Essex County","34013","NJ","New Jersey","40.7872","-74.2470","852720"
"Montgomery","Montgomery","Montgomery County","42091","PA","Pennsylvania","40.2108","-75.3673","850890"
"Baltimore","Baltimore","Baltimore County","24005","MD","Maryland","39.4627","-76.6393","850702"
"Ventura","Ventura","Ventura County","06111","CA","California","34.4561","-119.0836","845255"
"Hamilton","Hamilton","Hamilton County","39061","OH","Ohio","39.1955","-84.5428","826790"
"Snohomish","Snohomish","Snohomish County","53061","WA","Washington","48.0475","-121.6975","820024"
"Multnomah","Multnomah","Multnomah County","41051","OR","Oregon","45.5468","-122.4148","810011"
"Fort Bend","Fort Bend","Fort Bend County","48157","TX","Texas","29.5275","-95.7709","806497"
"Essex","Essex","Essex County","25009","MA","Massachusetts","42.6732","-70.9520","804598"
"Suffolk","Suffolk","Suffolk County","25025","MA","Massachusetts","42.3333","-71.0719","792647"
"Oklahoma","Oklahoma","Oklahoma County","40109","OK","Oklahoma","35.5515","-97.4072","790938"
"Jefferson","Jefferson","Jefferson County","21111","KY","Kentucky","38.1872","-85.6591","780449"
"San Joaquin","San Joaquin","San Joaquin County","06077","CA","California","37.9348","-121.2714","771406"
"Cobb","Cobb","Cobb County","13067","GA","Georgia","33.9415","-84.5767","762500"
"San Mateo","San Mateo","San Mateo County","06081","CA","California","37.4229","-122.3290","762488"
"DeKalb","DeKalb","DeKalb County","13089","GA","Georgia","33.7715","-84.2264","758634"
"Monroe","Monroe","Monroe County","36055","NY","New York","43.1464","-77.6961","757332"
"Lee","Lee","Lee County","12071","FL","Florida","26.5779","-81.8337","752251"
"El Paso","El Paso","El Paso County","08041","CO","Colorado","38.8321","-104.5254","722736"
"Norfolk","Norfolk","Norfolk County","25021","MA","Massachusetts","42.1605","-71.2115","720403"
"Lake","Lake","Lake County","17097","IL","Illinois","42.3233","-88.0037","714484"
"Hudson","Hudson","Hudson County","34017","NJ","New Jersey","40.7371","-74.0779","713264"
"Jackson","Jackson","Jackson County","29095","MO","Missouri","39.0085","-94.3461","713229"
"Polk","Polk","Polk County","12105","FL","Florida","27.9489","-81.6976","713148"
"Davidson","Davidson","Davidson County","47037","TN","Tennessee","36.1695","-86.7847","708490"
"Denver","Denver","Denver County","08031","CO","Colorado","39.7620","-104.8758","706799"
"Will","Will","Will County","17197","IL","Illinois","41.4450","-87.9786","696403"
"District of Columbia","District of Columbia","District of Columbia","11001","DC","District of Columbia","38.9047","-77.0163","683154"
"Bernalillo","Bernalillo","Bernalillo County","35001","NM","New Mexico","35.0514","-106.6702","674919"
"Jefferson","Jefferson","Jefferson County","01073","AL","Alabama","33.5543","-86.8964","672550"
"Tulsa","Tulsa","Tulsa County","40143","OK","Oklahoma","36.1211","-95.9415","664084"
"Providence","Providence","Providence County","44007","RI","Rhode Island","41.8721","-71.5800","656672"
"Kent","Kent","Kent County","26081","MI","Michigan","43.0322","-85.5493","654958"
"Arapahoe","Arapahoe","Arapahoe County","08005","CO","Colorado","39.6498","-104.3393","651621"
"Utah","Utah","Utah County","49049","UT","Utah","40.1199","-111.6703","648265"
"Bucks","Bucks","Bucks County","42017","PA","Pennsylvania","40.3370","-75.1069","643872"
"Monmouth","Monmouth","Monmouth County","34025","NJ","New Jersey","40.2603","-74.2213","642160"
"Ocean","Ocean","Ocean County","34029","NJ","New Jersey","39.8855","-74.2813","630057"
"Montgomery","Montgomery","Montgomery County","48339","TX","Texas","30.3002","-95.5030","607999"
"Johnson","Johnson","Johnson County","20091","KS","Kansas","38.8838","-94.8223","605154"
"Brevard","Brevard","Brevard County","12009","FL","Florida","28.2937","-80.7323","601573"
"Washington","Washington","Washington County","41067","OR","Oregon","45.5600","-123.0984","596969"
"Baltimore","Baltimore","Baltimore City","24510","MD","Maryland","39.3051","-76.6144","592211"
"Williamson","Williamson","Williamson County","48491","TX","Texas","30.6475","-97.6004","591759"
"Anne Arundel","Anne Arundel","Anne Arundel County","24003","MD","Maryland","39.0065","-76.6051","584064"
"Jefferson","Jefferson","Jefferson County","08059","CO","Colorado","39.5864","-105.2505","580130"
"Douglas","Douglas","Douglas County","31055","NE","Nebraska","41.2953","-96.1543","578771"
"Bristol","Bristol","Bristol County","25005","MA","Massachusetts","41.7972","-71.1144","576070"
"Delaware","Delaware","Delaware County","42045","PA","Pennsylvania","39.9167","-75.3991","573883"
"Union","Union","Union County","34039","NJ","New Jersey","40.6601","-74.3087","571963"
"New Castle","New Castle","New Castle County","10003","DE","Delaware","39.5768","-75.6527","567769"
"Dane","Dane","Dane County","55025","WI","Wisconsin","43.0673","-89.4181","555474"
"Pasco","Pasco","Pasco County","12101","FL","Florida","28.3091","-82.3932","551598"
"Stanislaus","Stanislaus","Stanislaus County","06099","CA","California","37.5591","-120.9977","550842"
"Lancaster","Lancaster","Lancaster County","42071","PA","Pennsylvania","40.0424","-76.2477","550480"
"Ramsey","Ramsey","Ramsey County","27123","MN","Minnesota","45.0171","-93.0996","549377"
"Volusia","Volusia","Volusia County","12127","FL","Florida","29.0584","-81.1819","548783"
"Summit","Summit","Summit County","39153","OH","Ohio","41.1260","-81.5322","540567"
"Guilford","Guilford","Guilford County","37081","NC","North Carolina","36.0795","-79.7889","537113"
"Montgomery","Montgomery","Montgomery County","39113","OH","Ohio","39.7547","-84.2907","536136"
"Chester","Chester","Chester County","42029","PA","Pennsylvania","39.9731","-75.7484","531704"
"Spokane","Spokane","Spokane County","53063","WA","Washington","47.6207","-117.4040","531477"
"Plymouth","Plymouth","Plymouth County","25023","MA","Massachusetts","41.9512","-70.8114","527602"
"Camden","Camden","Camden County","34007","NJ","New Jersey","39.8035","-74.9597","521194"
"Passaic","Passaic","Passaic County","34031","NJ","New Jersey","41.0343","-74.3008","521067"
"Sedgwick","Sedgwick","Sedgwick County","20173","KS","Kansas","37.6848","-97.4610","520467"
"Greenville","Greenville","Greenville County","45045","SC","South Carolina","34.8941","-82.3706","519178"
"Kane","Kane","Kane County","17089","IL","Illinois","41.9388","-88.4286","518648"
"Adams","Adams","Adams County","08001","CO","Colorado","39.8736","-104.3379","514969"
"Morris","Morris","Morris County","34027","NJ","New Jersey","40.8620","-74.5445","508347"
"Clark","Clark","Clark County","53011","WA","Washington","45.7792","-122.4825","496494"
"Lake","Lake","Lake County","18089","IN","Indiana","41.4167","-87.3821","495925"
"Richmond","Richmond","Richmond County","36085","NY","New York","40.5808","-74.1524","493194"
"Sonoma","Sonoma","Sonoma County","06097","CA","California","38.5289","-122.8881","492498"
"Polk","Polk","Polk County","19153","IA","Iowa","41.6854","-93.5734","488871"
"Ada","Ada","Ada County","16001","ID","Idaho","43.4511","-116.2412","485246"
"Washoe","Washoe","Washoe County","32031","NV","Nevada","40.6655","-119.6643","479758"
"Prince William","Prince William","Prince William County","51153","VA","Virginia","38.7029","-77.4809","477224"
"Knox","Knox","Knox County","47093","TN","Tennessee","35.9932","-83.9371","475286"
"Onondaga","Onondaga","Onondaga County","36067","NY","New York","43.0058","-76.1946","474621"
"Tulare","Tulare","Tulare County","06107","CA","California","36.2202","-118.8005","470999"
"Seminole","Seminole","Seminole County","12117","FL","Florida","28.7170","-81.2363","467382"
"Hampden","Hampden","Hampden County","25013","MA","Massachusetts","42.1351","-72.6316","466265"
"Burlington","Burlington","Burlington County","34005","NJ","New Jersey","39.8777","-74.6681","460102"
"Virginia Beach","Virginia Beach","Virginia Beach City","51810","VA","Virginia","36.7335","-76.0435","457658"
"East Baton Rouge","East Baton Rouge","East Baton Rouge Parish","22033","LA","Louisiana","30.5383","-91.0956","455447"
"York","York","York County","42133","PA","Pennsylvania","39.9200","-76.7265","454605"
"Solano","Solano","Solano County","06095","CA","California","38.2700","-121.9329","451432"
"Santa Barbara","Santa Barbara","Santa Barbara County","06083","CA","California","34.6729","-120.0169","447651"
"Jefferson","Jefferson","Jefferson Parish","22051","LA","Louisiana","29.7872","-90.1274","439402"
"Monterey","Monterey","Monterey County","06053","CA","California","36.2171","-121.2388","438953"
"Dakota","Dakota","Dakota County","27037","MN","Minnesota","44.6719","-93.0654","435863"
"Lucas","Lucas","Lucas County","39095","OH","Ohio","41.6197","-83.6588","431212"
"Sarasota","Sarasota","Sarasota County","12115","FL","Florida","27.1845","-82.3315","429336"
"Berks","Berks","Berks County","42011","PA","Pennsylvania","40.4163","-75.9260","426967"
"Pinal","Pinal","Pinal County","04021","AZ","Arizona","32.9044","-111.3448","420625"
"Cameron","Cameron","Cameron County","48061","TX","Texas","26.1333","-97.5182","420554"
"Hillsborough","Hillsborough","Hillsborough County","33011","NH","New Hampshire","42.9153","-71.7161","420504"
"Clackamas","Clackamas","Clackamas County","41005","OR","Oregon","45.1880","-122.2209","418577"
"Richland","Richland","Richland County","45079","SC","South Carolina","34.0218","-80.9031","414719"
"Mobile","Mobile","Mobile County","01097","AL","Alabama","30.7872","-88.2058","414620"
"Loudoun","Loudoun","Loudoun County","51107","VA","Virginia","39.0907","-77.6357","413574"
"Genesee","Genesee","Genesee County","26049","MI","Michigan","43.0217","-83.7067","406400"
"Waukesha","Waukesha","Waukesha County","55133","WI","Wisconsin","43.0182","-88.3045","405332"
"Charleston","Charleston","Charleston County","45019","SC","South Carolina","32.8346","-79.9531","404946"
"St. Charles","St. Charles","St. Charles County","29183","MO","Missouri","38.7820","-90.6749","402377"
"Placer","Placer","Placer County","06061","CA","California","39.0634","-120.7177","400330"
"Orange","Orange","Orange County","36071","NY","New York","41.4022","-74.3056","398277"
"Pulaski","Pulaski","Pulaski County","05119","AR","Arkansas","34.7700","-92.3120","397931"
"Manatee","Manatee","Manatee County","12081","FL","Florida","27.4719","-82.3153","394824"
"Butler","Butler","Butler County","39017","OH","Ohio","39.4386","-84.5756","387830"
"Mercer","Mercer","Mercer County","34021","NJ","New Jersey","40.2834","-74.7018","384951"
"Orleans","Orleans","Orleans Parish","22071","LA","Louisiana","30.0687","-89.9288","383974"
"Madison","Madison","Madison County","01089","AL","Alabama","34.7631","-86.5502","382149"
"Allen","Allen","Allen County","18003","IN","Indiana","41.0909","-85.0666","381839"
"Forsyth","Forsyth","Forsyth County","37067","NC","North Carolina","36.1306","-80.2563","380583"
"Lane","Lane","Lane County","41039","OR","Oregon","43.9386","-122.8480","380532"
"Osceola","Osceola","Osceola County","12097","FL","Florida","28.0627","-81.1494","380331"
"Lake","Lake","Lake County","12069","FL","Florida","28.7615","-81.7113","375059"
"Stark","Stark","Stark County","39151","OH","Ohio","40.8139","-81.3656","374712"
"Collier","Collier","Collier County","12021","FL","Florida","26.1108","-81.3475","372797"
"Lehigh","Lehigh","Lehigh County","42077","PA","Pennsylvania","40.6127","-75.5923","372492"
"Washtenaw","Washtenaw","Washtenaw County","26161","MI","Michigan","42.2532","-83.8388","372428"
"Marion","Marion","Marion County","12083","FL","Florida","29.2102","-82.0567","370372"
"Brazoria","Brazoria","Brazoria County","48039","TX","Texas","29.1897","-95.4521","368575"
"Bell","Bell","Bell County","48027","TX","Texas","31.0373","-97.4788","364703"
"Hamilton","Hamilton","Hamilton County","47065","TN","Tennessee","35.1808","-85.1648","363790"
"Anoka","Anoka","Anoka County","27003","MN","Minnesota","45.2733","-93.2465","360773"
"Chesterfield","Chesterfield","Chesterfield County","51041","VA","Virginia","37.3785","-77.5870","359798"
"Davis","Davis","Davis County","49011","UT","Utah","40.9900","-112.1115","358831"
"Westmoreland","Westmoreland","Westmoreland County","42129","PA","Pennsylvania","40.3109","-79.4668","355107"
"Larimer","Larimer","Larimer County","08069","CO","Colorado","40.6664","-105.4612","354670"
"Nueces","Nueces","Nueces County","48355","TX","Texas","27.7254","-97.6134","353594"
"Douglas","Douglas","Douglas County","08035","CO","Colorado","39.3297","-104.9296","351929"
"Galveston","Galveston","Galveston County","48167","TX","Texas","29.3945","-94.9635","347084"
"Horry","Horry","Horry County","45051","SC","South Carolina","33.9214","-78.9966","344865"
"Marion","Marion","Marion County","41047","OR","Oregon","44.9033","-122.5845","344037"
"Somerset","Somerset","Somerset County","34035","NJ","New Jersey","40.5635","-74.6163","343950"
"Hamilton","Hamilton","Hamilton County","18057","IN","Indiana","40.0725","-86.0520","341616"
"Rockland","Rockland","Rockland County","36087","NY","New York","41.1525","-74.0242","336485"
"Rutherford","Rutherford","Rutherford County","47149","TN","Tennessee","35.8427","-86.4168","335595"
"Cumberland","Cumberland","Cumberland County","37051","NC","North Carolina","35.0487","-78.8277","333582"
"Henrico","Henrico","Henrico County","51087","VA","Virginia","37.5380","-77.4058","331924"
"Howard","Howard","Howard County","24027","MD","Maryland","39.2507","-76.9312","329248"
"Boulder","Boulder","Boulder County","08013","CO","Colorado","40.0925","-105.3577","328713"
"Luzerne","Luzerne","Luzerne County","42079","PA","Pennsylvania","41.1770","-75.9892","324825"
"St. Lucie","St. Lucie","St. Lucie County","12111","FL","Florida","27.3773","-80.4720","324599"
"Spartanburg","Spartanburg","Spartanburg County","45083","SC","South Carolina","34.9309","-81.9908","322864"
"Weld","Weld","Weld County","08123","CO","Colorado","40.5548","-104.3925","322424"
"Fayette","Fayette","Fayette County","21067","KY","Kentucky","38.0423","-84.4587","321354"
"Lancaster","Lancaster","Lancaster County","31109","NE","Nebraska","40.7842","-96.6878","320301"
"Durham","Durham","Durham County","37063","NC","North Carolina","36.0360","-78.8766","320146"
"Escambia","Escambia","Escambia County","12033","FL","Florida","30.6690","-87.3630","318828"
"Albany","Albany","Albany County","36001","NY","New York","42.6002","-73.9736","314679"
"Rockingham","Rockingham","Rockingham County","33015","NH","New Hampshire","42.9875","-71.1254","312771"
"Lorain","Lorain","Lorain County","39093","OH","Ohio","41.2957","-82.1510","311737"
"Northampton","Northampton","Northampton County","42095","PA","Pennsylvania","40.7542","-75.3076","311359"
"McHenry","McHenry","McHenry County","17111","IL","Illinois","42.3244","-88.4523","310749"
"Lubbock","Lubbock","Lubbock County","48303","TX","Texas","33.6102","-101.8205","308580"
"St. Louis","St. Louis","St. Louis City","29510","MO","Missouri","38.6359","-90.2451","302787"
"Gloucester","Gloucester","Gloucester County","34015","NJ","New Jersey","39.7173","-75.1414","300821"
"Cumberland","Cumberland","Cumberland County","23005","ME","Maine","43.8465","-70.3990","300776"
"Greene","Greene","Greene County","29077","MO","Missouri","37.2580","-93.3420","296875"
"Dutchess","Dutchess","Dutchess County","36027","NY","New York","41.7652","-73.7429","296012"
"Chatham","Chatham","Chatham County","13051","GA","Georgia","32.0043","-81.1329","294815"
"Clayton","Clayton","Clayton County","13063","GA","Georgia","33.5419","-84.3577","294335"
"Ottawa","Ottawa","Ottawa County","26139","MI","Michigan","42.9598","-85.9961","293713"
"Anchorage","Anchorage","Anchorage Municipality","02020","AK","Alaska","61.1508","-149.1091","292545"
"Cleveland","Cleveland","Cleveland County","40027","OK","Oklahoma","35.2031","-97.3265","292110"
"Lexington","Lexington","Lexington County","45063","SC","South Carolina","33.9023","-81.2722","291723"
"Leon","Leon","Leon County","12073","FL","Florida","30.4580","-84.2779","290965"
"Thurston","Thurston","Thurston County","53067","WA","Washington","46.9258","-122.8332","290642"
"Ingham","Ingham","Ingham County","26065","MI","Michigan","42.5971","-84.3735","285660"
"Winnebago","Winnebago","Winnebago County","17201","IL","Illinois","42.3363","-89.1609","285471"
"Dauphin","Dauphin","Dauphin County","42043","PA","Pennsylvania","40.4154","-76.7795","284199"
"San Luis Obispo","San Luis Obispo","San Luis Obispo County","06079","CA","California","35.3871","-120.4044","282771"
"Merced","Merced","Merced County","06047","CA","California","37.1919","-120.7177","279150"
"Benton","Benton","Benton County","05007","AR","Arkansas","36.3387","-94.2561","278774"
"York","York","York County","45091","SC","South Carolina","34.9748","-81.1845","276569"
"Alachua","Alachua","Alachua County","12001","FL","Florida","29.6747","-82.3577","276171"
"Atlantic","Atlantic","Atlantic County","34001","NJ","New Jersey","39.4777","-74.6610","273865"
"Kitsap","Kitsap","Kitsap County","53035","WA","Washington","47.6130","-122.6716","273072"
"Santa Cruz","Santa Cruz","Santa Cruz County","06087","CA","California","37.0562","-122.0018","272138"
"St. Joseph","St. Joseph","St. Joseph County","18141","IN","Indiana","41.6167","-86.2899","272049"
"Erie","Erie","Erie County","42049","PA","Pennsylvania","41.9925","-80.0327","271903"
"New London","New London","New London County","09011","CT","Connecticut","41.4867","-72.1014","269131"
"Frederick","Frederick","Frederick County","24021","MD","Maryland","39.4722","-77.3980","267498"
"Brown","Brown","Brown County","55009","WI","Wisconsin","44.4525","-88.0037","267364"
"Buncombe","Buncombe","Buncombe County","37021","NC","North Carolina","35.6112","-82.5301","266981"
"Webb","Webb","Webb County","48479","TX","Texas","27.7611","-99.3315","266963"
"Madison","Madison","Madison County","17119","IL","Illinois","38.8297","-89.9049","266112"
"St. Johns","St. Johns","St. Johns County","12109","FL","Florida","29.9016","-81.4407","265724"
"Washington","Washington","Washington County","27163","MN","Minnesota","45.0388","-92.8838","264818"
"St. Tammany","St. Tammany","St. Tammany Parish","22103","LA","Louisiana","30.4102","-89.9583","262799"
"Marin","Marin","Marin County","06041","CA","California","38.0735","-122.7235","262387"
"Cherokee","Cherokee","Cherokee County","13057","GA","Georgia","34.2440","-84.4763","262155"
"Kalamazoo","Kalamazoo","Kalamazoo County","26077","MI","Michigan","42.2455","-85.5312","261280"
"Weber","Weber","Weber County","49057","UT","Utah","41.2698","-111.9134","259390"
"Harford","Harford","Harford County","24025","MD","Maryland","39.5611","-76.3171","259162"
"St. Clair","St. Clair","St. Clair County","17163","IL","Illinois","38.4703","-89.9284","258597"
"McLennan","McLennan","McLennan County","48309","TX","Texas","31.5524","-97.2018","258031"
"Cumberland","Cumberland","Cumberland County","42041","PA","Pennsylvania","40.1636","-77.2655","257333"
"Jefferson","Jefferson","Jefferson County","48245","TX","Texas","29.8841","-94.1629","256755"
"Yakima","Yakima","Yakima County","53077","WA","Washington","46.4571","-120.7385","255151"
"Clay","Clay","Clay County","29047","MO","Missouri","39.3105","-94.4209","250134"
"Chesapeake","Chesapeake","Chesapeake City","51550","VA","Virginia","36.6778","-76.3024","247172"
"Forsyth","Forsyth","Forsyth County","13117","GA","Georgia","34.2255","-84.1251","245754"
"Washington","Washington","Washington County","05143","AR","Arkansas","35.9791","-94.2156","242793"
"Williamson","Williamson","Williamson County","47187","TN","Tennessee","35.8938","-86.8987","242386"
"Lafayette","Lafayette","Lafayette Parish","22055","LA","Louisiana","30.2068","-92.0639","241173"
"Caddo","Caddo","Caddo Parish","22017","LA","Louisiana","32.5806","-93.8823","239775"
"Warren","Warren","Warren County","39165","OH","Ohio","39.4277","-84.1668","239556"
"Norfolk","Norfolk","Norfolk City","51710","VA","Virginia","36.8945","-76.2590","238556"
"Henry","Henry","Henry County","13151","GA","Georgia","33.4530","-84.1542","236615"
"Arlington","Arlington","Arlington County","51013","VA","Virginia","38.8786","-77.1011","235764"
"Union","Union","Union County","37179","NC","North Carolina","34.9884","-80.5307","235699"
"Saratoga","Saratoga","Saratoga County","36091","NY","New York","43.1074","-73.8639","235010"
"Hays","Hays","Hays County","48209","TX","Texas","30.0579","-98.0312","234573"
"Sussex","Sussex","Sussex County","10005","DE","Delaware","38.6606","-75.3900","234045"
"Yavapai","Yavapai","Yavapai County","04025","AZ","Arizona","34.5998","-112.5538","233789"
"Lake","Lake","Lake County","39085","OH","Ohio","41.6963","-81.2373","232202"
"Oneida","Oneida","Oneida County","36065","NY","New York","43.2418","-75.4358","232034"
"Smith","Smith","Smith County","48423","TX","Texas","32.3750","-95.2692","231429"
"Brazos","Brazos","Brazos County","48041","TX","Texas","30.6608","-96.3024","231095"
"Hinds","Hinds","Hinds County","28049","MS","Mississippi","32.2667","-90.4428","230772"
"Montgomery","Montgomery","Montgomery County","01101","AL","Alabama","32.2203","-86.2076","229072"
"Mahoning","Mahoning","Mahoning County","39099","OH","Ohio","41.0146","-80.7763","229044"
"Linn","Linn","Linn County","19113","IA","Iowa","42.0790","-91.5990","228567"
"Barnstable","Barnstable","Barnstable County","25001","MA","Massachusetts","41.7244","-70.2904","227942"
"Canyon","Canyon","Canyon County","16027","ID","Idaho","43.6251","-116.7093","227367"
"Baldwin","Baldwin","Baldwin County","01003","AL","Alabama","30.7276","-87.7226","227131"
"Gaston","Gaston","Gaston County","37071","NC","North Carolina","35.2944","-81.1803","226097"
"Jefferson","Jefferson","Jefferson County","29099","MO","Missouri","38.2611","-90.5377","225913"
"Richmond","Richmond","Richmond City","51760","VA","Virginia","37.5295","-77.4756","225676"
"New Hanover","New Hanover","New Hanover County","37129","NC","North Carolina","34.2328","-77.8847","225175"
"Berkeley","Berkeley","Berkeley County","45015","SC","South Carolina","33.1973","-79.9522","224806"
"Whatcom","Whatcom","Whatcom County","53073","WA","Washington","48.8259","-121.7199","224533"
"Tuscaloosa","Tuscaloosa","Tuscaloosa County","01125","AL","Alabama","33.2896","-87.5251","223945"
"Jackson","Jackson","Jackson County","41029","OR","Oregon","42.4322","-122.7285","221662"
"Cabarrus","Cabarrus","Cabarrus County","37025","NC","North Carolina","35.3868","-80.5519","221200"
"Shelby","Shelby","Shelby County","01117","AL","Alabama","33.2643","-86.6607","220780"
"Doña Ana","Dona Ana","Doña Ana County","35013","NM","New Mexico","32.3526","-106.8328","218157"
"Butte","Butte","Butte County","06007","CA","California","39.6669","-121.6007","217884"
"Yolo","Yolo","Yolo County","06113","CA","California","38.6866","-121.9016","216703"
"Clay","Clay","Clay County","12019","FL","Florida","29.9831","-81.8579","216308"
"Montgomery","Montgomery","Montgomery County","47125","TN","Tennessee","36.4969","-87.3828","216172"
"Lackawanna","Lackawanna","Lackawanna County","42069","PA","Pennsylvania","41.4367","-75.6092","215529"
"Niagara","Niagara","Niagara County","36063","NY","New York","43.2001","-78.7452","212808"
"Calcasieu","Calcasieu","Calcasieu Parish","22019","LA","Louisiana","30.2293","-93.3581","212646"
"Johnston","Johnston","Johnston County","37101","NC","North Carolina","35.5178","-78.3657","211320"
"Mohave","Mohave","Mohave County","04015","AZ","Arizona","35.7041","-113.7579","211274"
"Delaware","Delaware","Delaware County","39041","OH","Ohio","40.2784","-83.0049","211121"
"York","York","York County","23031","ME","Maine","43.4782","-70.7144","210486"
"Okaloosa","Okaloosa","Okaloosa County","12091","FL","Florida","30.6913","-86.5917","209230"
"Washington","Washington","Washington County","42125","PA","Pennsylvania","40.1894","-80.2483","209090"
"Clermont","Clermont","Clermont County","39025","OH","Ohio","39.0476","-84.1517","207650"
"Harrison","Harrison","Harrison County","28047","MS","Mississippi","30.5122","-89.1161","207382"
"Champaign","Champaign","Champaign County","17019","IL","Illinois","40.1401","-88.1992","206583"
"Elkhart","Elkhart","Elkhart County","18039","IN","Indiana","41.5974","-85.8587","206314"
"Richmond","Richmond","Richmond County","13245","GA","Georgia","33.3596","-82.0736","205772"
"Benton","Benton","Benton County","53005","WA","Washington","46.2398","-119.5112","204551"
"Muscogee","Muscogee","Muscogee County","13215","GA","Georgia","32.5100","-84.8771","204366"
"Yuma","Yuma","Yuma County","04027","AZ","Arizona","32.7695","-113.9056","202944"
"Anderson","Anderson","Anderson County","45007","SC","South Carolina","34.5193","-82.6378","202223"
"Trumbull","Trumbull","Trumbull County","39155","OH","Ohio","41.3172","-80.7611","202199"
"Hall","Hall","Hall County","13139","GA","Georgia","34.3169","-83.8197","201703"
"Onslow","Onslow","Onslow County","37133","NC","North Carolina","34.7321","-77.4321","201597"
"Hawaii","Hawaii","Hawaii County","15001","HI","Hawaii","19.5985","-155.5185","200468"
"St. Louis","St. Louis","St. Louis County","27137","MN","Minnesota","47.6031","-92.4707","200311"
"Broome","Broome","Broome County","36007","NY","New York","42.1602","-75.8196","198591"
"Racine","Racine","Racine County","55101","WI","Wisconsin","42.7475","-88.0613","197379"
"Sangamon","Sangamon","Sangamon County","17167","IL","Illinois","39.7582","-89.6589","196759"
"Deschutes","Deschutes","Deschutes County","41017","OR","Oregon","43.9150","-121.2281","194964"
"Minnehaha","Minnehaha","Minnehaha County","46099","SD","South Dakota","43.6742","-96.7915","194884"
"Livingston","Livingston","Livingston County","26093","MI","Michigan","42.6029","-83.9115","193234"
"Sumner","Sumner","Sumner County","47165","TN","Tennessee","36.4694","-86.4604","193036"
"Butler","Butler","Butler County","42019","PA","Pennsylvania","40.9120","-79.9133","192561"
"Hernando","Hernando","Hernando County","12053","FL","Florida","28.5535","-82.4245","192128"
"El Dorado","El Dorado","El Dorado County","06017","CA","California","38.7787","-120.5247","190568"
"Saginaw","Saginaw","Saginaw County","26145","MI","Michigan","43.3350","-84.0532","190540"
"Outagamie","Outagamie","Outagamie County","55087","WI","Wisconsin","44.4161","-88.4649","189620"
"Sarpy","Sarpy","Sarpy County","31153","NE","Nebraska","41.1129","-96.1120","188464"
"Ellis","Ellis","Ellis County","48139","TX","Texas","32.3484","-96.7947","187984"
"Beaufort","Beaufort","Beaufort County","45013","SC","South Carolina","32.3855","-80.7302","186007"
"Tippecanoe","Tippecanoe","Tippecanoe County","18157","IN","Indiana","40.3886","-86.8941","185961"
"Litchfield","Litchfield","Litchfield County","09005","CT","Connecticut","41.7925","-73.2453","185175"
"Newport News","Newport News","Newport News City","51700","VA","Virginia","37.1051","-76.5185","185069"
"Charlotte","Charlotte","Charlotte County","12015","FL","Florida","26.9055","-81.9123","184837"
"Santa Rosa","Santa Rosa","Santa Rosa County","12113","FL","Florida","30.7004","-87.0219","184345"
"Iredell","Iredell","Iredell County","37097","NC","North Carolina","35.8071","-80.8734","183965"
"DeSoto","DeSoto","DeSoto County","28033","MS","Mississippi","34.8753","-89.9912","183220"
"Cass","Cass","Cass County","38017","ND","North Dakota","46.9330","-97.2480","182992"
"Peoria","Peoria","Peoria County","17143","IL","Illinois","40.7880","-89.7600","182439"
"Boone","Boone","Boone County","29019","MO","Missouri","38.9906","-92.3097","182170"
"Kanawha","Kanawha","Kanawha County","54039","WV","West Virginia","38.3366","-81.5281","181953"
"Shasta","Shasta","Shasta County","06089","CA","California","40.7637","-122.0405","181935"
"Ulster","Ulster","Ulster County","36111","NY","New York","41.8881","-74.2586","181862"
"Medina","Medina","Medina County","39103","OH","Ohio","41.1176","-81.8997","181448"
"Bay","Bay","Bay County","12005","FL","Florida","30.2652","-85.6203","181384"
"Kent","Kent","Kent County","10001","DE","Delaware","39.0860","-75.5686","180078"
"Imperial","Imperial","Imperial County","06025","CA","California","33.0395","-115.3653","180051"
"Vanderburgh","Vanderburgh","Vanderburgh County","18163","IN","Indiana","38.0249","-87.5859","179695"
"Shawnee","Shawnee","Shawnee County","20177","KS","Kansas","39.0415","-95.7565","179053"
"Licking","Licking","Licking County","39089","OH","Ohio","40.0916","-82.4831","177454"
"Johnson","Johnson","Johnson County","48251","TX","Texas","32.3790","-97.3665","177022"
"Washington","Washington","Washington County","49053","UT","Utah","37.2804","-113.5048","176533"
"Muskegon","Muskegon","Muskegon County","26121","MI","Michigan","43.2912","-86.1520","175633"
"Scott","Scott","Scott County","19163","IA","Iowa","41.6371","-90.6232","174170"
"Porter","Porter","Porter County","18127","IN","Indiana","41.4603","-87.0672","172353"
"Lee","Lee","Lee County","01081","AL","Alabama","32.6011","-85.3555","172223"
"Carroll","Carroll","Carroll County","24013","MD","Maryland","39.5629","-77.0225","172148"
"Hendricks","Hendricks","Hendricks County","18063","IN","Indiana","39.7695","-86.5100","172100"
"McLean","McLean","McLean County","17113","IL","Illinois","40.4909","-88.8473","171455"
"Winnebago","Winnebago","Winnebago County","55139","WI","Wisconsin","44.0689","-88.6446","171304"
"Pitt","Pitt","Pitt County","37147","NC","North Carolina","35.5933","-77.3745","170600"
"Guadalupe","Guadalupe","Guadalupe County","48187","TX","Texas","29.5831","-97.9486","169477"
"Kent","Kent","Kent County","44003","RI","Rhode Island","41.6722","-71.5930","169345"
"Alamance","Alamance","Alamance County","37001","NC","North Carolina","36.0437","-79.3994","169185"
"Kenosha","Kenosha","Kenosha County","55059","WI","Wisconsin","42.5769","-88.0424","168743"
"Wyandotte","Wyandotte","Wyandotte County","20209","KS","Kansas","39.1146","-94.7646","168333"
"Kootenai","Kootenai","Kootenai County","16055","ID","Idaho","47.6744","-116.7018","168317"
"Kenton","Kenton","Kenton County","21117","KY","Kentucky","38.9334","-84.5333","168264"
"Beaver","Beaver","Beaver County","42007","PA","Pennsylvania","40.6823","-80.3493","168260"
"Monroe","Monroe","Monroe County","42089","PA","Pennsylvania","41.0581","-75.3395","168128"
"Aiken","Aiken","Aiken County","45003","SC","South Carolina","33.5443","-81.6347","168045"
"Davidson","Davidson","Davidson County","37057","NC","North Carolina","35.7933","-80.2128","168002"
"Chittenden","Chittenden","Chittenden County","50007","VT","Vermont","44.4611","-73.0813","167523"
"Pueblo","Pueblo","Pueblo County","08101","CO","Colorado","38.1735","-104.5127","167453"
"Greene","Greene","Greene County","39057","OH","Ohio","39.6915","-83.8899","167043"
"Midland","Midland","Midland County","48329","TX","Texas","31.8691","-102.0316","166964"
"Paulding","Paulding","Paulding County","13223","GA","Georgia","33.9205","-84.8673","165688"
"Charles","Charles","Charles County","24017","MD","Maryland","38.5073","-76.9922","165209"
"Maui","Maui","Maui County","15009","HI","Hawaii","20.8596","-156.5649","164568"
"Middlesex","Middlesex","Middlesex County","09007","CT","Connecticut","41.4632","-72.5351","164568"
"Yellowstone","Yellowstone","Yellowstone County","30111","MT","Montana","45.9373","-108.2744","163593"
"Rock","Rock","Rock County","55105","WI","Wisconsin","42.6712","-89.0716","163522"
"Portage","Portage","Portage County","39133","OH","Ohio","41.1677","-81.1974","161897"
"Hampshire","Hampshire","Hampshire County","25015","MA","Massachusetts","42.3402","-72.6638","161810"
"Ector","Ector","Ector County","48135","TX","Texas","31.8692","-102.5429","161258"
"Houston","Houston","Houston County","13153","GA","Georgia","32.4590","-83.6662","161177"
"Rensselaer","Rensselaer","Rensselaer County","36083","NY","New York","42.7111","-73.5097","161125"
"Olmsted","Olmsted","Olmsted County","27109","MN","Minnesota","44.0038","-92.4018","160928"
"Jackson","Jackson","Jackson County","26075","MI","Michigan","42.2485","-84.4234","160765"
"Ouachita","Ouachita","Ouachita Parish","22073","LA","Louisiana","32.4784","-92.1549","160227"
"Dorchester","Dorchester","Dorchester County","45035","SC","South Carolina","33.0793","-80.4067","160180"
"St. Clair","St. Clair","St. Clair County","26147","MI","Michigan","42.9341","-82.6806","160067"
"Catawba","Catawba","Catawba County","37035","NC","North Carolina","35.6620","-81.2151","159852"
"Johnson","Johnson","Johnson County","18081","IN","Indiana","39.4900","-86.1016","159739"
"Centre","Centre","Centre County","42027","PA","Pennsylvania","40.9193","-77.8199","158879"
"Martin","Martin","Martin County","12085","FL","Florida","27.0775","-80.4315","158323"
"Alexandria","Alexandria","Alexandria City","51510","VA","Virginia","38.8185","-77.0861","158185"
"Indian River","Indian River","Indian River County","12061","FL","Florida","27.6943","-80.6062","158002"
"Sullivan","Sullivan","Sullivan County","47163","TN","Tennessee","36.5129","-82.3042","157843"
"Stearns","Stearns","Stearns County","27145","MN","Minnesota","45.5521","-94.6130","157638"
"Fairfield","Fairfield","Fairfield County","39045","OH","Ohio","39.7516","-82.6306","157622"
"Schenectady","Schenectady","Schenectady County","36093","NY","New York","42.8181","-74.0586","157515"
"Bibb","Bibb","Bibb County","13021","GA","Georgia","32.8065","-83.6974","156711"
"Madera","Madera","Madera County","06039","CA","California","37.2180","-119.7627","156304"
"Comal","Comal","Comal County","48091","TX","Texas","29.8082","-98.2783","156257"
"Rankin","Rankin","Rankin County","28121","MS","Mississippi","32.2641","-89.9458","156052"
"Franklin","Franklin","Franklin County","42055","PA","Pennsylvania","39.9274","-77.7213","155592"
"Cumberland","Cumberland","Cumberland County","34011","NJ","New Jersey","39.3738","-75.1107","154921"
"Mesa","Mesa","Mesa County","08077","CO","Colorado","39.0183","-108.4664","154685"
"Columbia","Columbia","Columbia County","13073","GA","Georgia","33.5441","-82.2641","154274"
"Berrien","Berrien","Berrien County","26021","MI","Michigan","41.9547","-86.4123","154263"
"Stafford","Stafford","Stafford County","51179","VA","Virginia","38.4207","-77.4580","154204"
"Monroe","Monroe","Monroe County","26115","MI","Michigan","41.9291","-83.5394","154068"
"Washington","Washington","Washington County","24043","MD","Maryland","39.6036","-77.8140","153956"
"Santa Fe","Santa Fe","Santa Fe County","35049","NM","New Mexico","35.5069","-105.9763","153632"
"Merrimack","Merrimack","Merrimack County","33013","NH","New Hampshire","43.2975","-71.6802","152983"
"Penobscot","Penobscot","Penobscot County","23019","ME","Maine","45.4006","-68.6495","152211"
"Citrus","Citrus","Citrus County","12017","FL","Florida","28.8489","-82.4794","151888"
"Kings","Kings","Kings County","06031","CA","California","36.0752","-119.8155","151887"
"Johnson","Johnson","Johnson County","19103","IA","Iowa","41.6715","-91.5881","151833"
"Canadian","Canadian","Canadian County","40017","OK","Oklahoma","35.5424","-97.9824","151174"
"Tolland","Tolland","Tolland County","09013","CT","Connecticut","41.8550","-72.3365","150120"
"Scott","Scott","Scott County","27139","MN","Minnesota","44.6485","-93.5359","149568"
"Orange","Orange","Orange County","37135","NC","North Carolina","36.0611","-79.1207","147376"
"Sandoval","Sandoval","Sandoval County","35043","NM","New Mexico","35.6886","-106.8659","147327"
"Rowan","Rowan","Rowan County","37159","NC","North Carolina","35.6394","-80.5247","145784"
"Coconino","Coconino","Coconino County","04005","AZ","Arizona","35.8387","-111.7705","144942"
"Coweta","Coweta","Coweta County","13077","GA","Georgia","33.3534","-84.7634","144928"
"Parker","Parker","Parker County","48367","TX","Texas","32.7776","-97.8051","144803"
"Wilson","Wilson","Wilson County","47189","TN","Tennessee","36.1549","-86.2977","144748"
"Rock Island","Rock Island","Rock Island County","17161","IL","Illinois","41.4673","-90.5674","144694"
"Sussex","Sussex","Sussex County","34037","NJ","New Jersey","41.1393","-74.6908","144492"
"Randolph","Randolph","Randolph County","37151","NC","North Carolina","35.7103","-79.8060","143735"
"Douglas","Douglas","Douglas County","13097","GA","Georgia","33.7018","-84.7680","143520"
"Schuylkill","Schuylkill","Schuylkill County","42107","PA","Pennsylvania","40.7058","-76.2160","143308"
"Jackson","Jackson","Jackson County","28059","MS","Mississippi","30.5423","-88.6357","142993"
"Lebanon","Lebanon","Lebanon County","42075","PA","Pennsylvania","40.3672","-76.4577","142486"
"Taylor","Taylor","Taylor County","48441","TX","Texas","32.3015","-99.8902","141739"
"Livingston","Livingston","Livingston Parish","22063","LA","Louisiana","30.4401","-90.7279","141057"
"Monroe","Monroe","Monroe County","18105","IN","Indiana","39.1609","-86.5231","140189"
"Kaufman","Kaufman","Kaufman County","48257","TX","Texas","32.5993","-96.2878","140145"
"Wright","Wright","Wright County","27171","MN","Minnesota","45.1739","-93.9631","139890"
"Randall","Randall","Randall County","48381","TX","Texas","34.9659","-101.8970","139176"
"Napa","Napa","Napa County","06055","CA","California","38.5065","-122.3305","138795"
"Spotsylvania","Spotsylvania","Spotsylvania County","51177","VA","Virginia","38.1850","-77.6561","138493"
"Marathon","Marathon","Marathon County","55073","WI","Wisconsin","44.8983","-89.7591","137597"
"Florence","Florence","Florence County","45041","SC","South Carolina","34.0245","-79.7030","137276"
"Humboldt","Humboldt","Humboldt County","06023","CA","California","40.6993","-123.8756","137014"
"Hampton","Hampton","Hampton City","51650","VA","Virginia","37.0551","-76.3630","136748"
"Washington","Washington","Washington County","55131","WI","Wisconsin","43.3685","-88.2307","136300"
"Clark","Clark","Clark County","39023","OH","Ohio","39.9168","-83.7838","136032"
"Boone","Boone","Boone County","21015","KY","Kentucky","38.9699","-84.7278","134599"
"Calhoun","Calhoun","Calhoun County","26025","MI","Michigan","42.2465","-85.0056","134207"
"Grayson","Grayson","Grayson County","48181","TX","Texas","33.6268","-96.6777","134205"
"Cambria","Cambria","Cambria County","42021","PA","Pennsylvania","40.4952","-78.7135","134048"
"Blount","Blount","Blount County","47009","TN","Tennessee","35.6872","-83.9255","134042"
"Brunswick","Brunswick","Brunswick County","37019","NC","North Carolina","34.0710","-78.2377","133789"
"Warren","Warren","Warren County","21227","KY","Kentucky","36.9936","-86.4238","133216"
"Harnett","Harnett","Harnett County","37085","NC","North Carolina","35.3688","-78.8693","133074"
"Tangipahoa","Tangipahoa","Tangipahoa Parish","22105","LA","Louisiana","30.6266","-90.4057","132492"
"Washington","Washington","Washington County","47179","TN","Tennessee","36.2933","-82.4974","132067"
"Tazewell","Tazewell","Tazewell County","17179","IL","Illinois","40.5075","-89.5134","131977"
"Wood","Wood","Wood County","39173","OH","Ohio","41.3617","-83.6230","131930"
"Cache","Cache","Cache County","49005","UT","Utah","41.7224","-111.7436","131703"
"Black Hawk","Black Hawk","Black Hawk County","19013","IA","Iowa","42.4701","-92.3088","131396"
"Kendall","Kendall","Kendall County","17093","IL","Illinois","41.5906","-88.4288","130757"
"Strafford","Strafford","Strafford County","33017","NH","New Hampshire","43.2969","-71.0289","130598"
"Rapides","Rapides","Rapides Parish","22079","LA","Louisiana","31.1986","-92.5332","130459"
"Madison","Madison","Madison County","18095","IN","Indiana","40.1616","-85.7194","130037"
"Washington","Washington","Washington County","44009","RI","Rhode Island","41.4697","-71.6226","129735"
"Pickens","Pickens","Pickens County","45077","SC","South Carolina","34.8873","-82.7253","129617"
"Fayette","Fayette","Fayette County","42051","PA","Pennsylvania","39.9201","-79.6474","129443"
"Wichita","Wichita","Wichita County","48485","TX","Texas","33.9880","-98.7035","129419"
"Berkshire","Berkshire","Berkshire County","25003","MA","Massachusetts","42.3707","-73.2063","129089"
"Hunterdon","Hunterdon","Hunterdon County","34019","NJ","New Jersey","40.5673","-74.9122","128807"
"Bossier","Bossier","Bossier Parish","22015","LA","Louisiana","32.6784","-93.6049","128508"
"Skagit","Skagit","Skagit County","53057","WA","Washington","48.4794","-121.7302","128228"
"Clarke","Clarke","Clarke County","13059","GA","Georgia","33.9512","-83.3673","128195"
"Chautauqua","Chautauqua","Chautauqua County","36013","NY","New York","42.2281","-79.3663","128042"
"Sebastian","Sebastian","Sebastian County","05131","AR","Arkansas","35.1988","-94.2743","127941"
"Sumter","Sumter","Sumter County","12119","FL","Florida","28.7048","-82.0810","127335"
"Linn","Linn","Linn County","41043","OR","Oregon","44.4886","-122.5343","127200"
"Ascension","Ascension","Ascension Parish","22005","LA","Louisiana","30.2036","-90.9113","125289"
"Cochise","Cochise","Cochise County","04003","AZ","Arizona","31.8796","-109.7512","125092"
"Richland","Richland","Richland County","39139","OH","Ohio","40.7747","-82.5365","124504"
"Gregg","Gregg","Gregg County","48183","TX","Texas","32.4805","-94.8170","123744"
"Kennebec","Kennebec","Kennebec County","23011","ME","Maine","44.4091","-69.7673","123293"
"Faulkner","Faulkner","Faulkner County","05045","AR","Arkansas","35.1470","-92.3320","123191"
"Blair","Blair","Blair County","42013","PA","Pennsylvania","40.4811","-78.3484","123132"
"San Juan","San Juan","San Juan County","35045","NM","New Mexico","36.5085","-108.3206","122912"
"Morgan","Morgan","Morgan County","01103","AL","Alabama","34.4535","-86.8529","122608"
"Saline","Saline","Saline County","05125","AR","Arkansas","34.6466","-92.6766","122308"
"Jasper","Jasper","Jasper County","29097","MO","Missouri","37.2036","-94.3406","122059"
"Bonneville","Bonneville","Bonneville County","16019","ID","Idaho","43.3877","-111.6148","121771"
"Comanche","Comanche","Comanche County","40031","OK","Oklahoma","34.6621","-98.4717","121502"
"Berkeley","Berkeley","Berkeley County","54003","WV","West Virginia","39.4641","-78.0275","120460"
"La Crosse","La Crosse","La Crosse County","55063","WI","Wisconsin","43.9066","-91.1152","120291"
"Clark","Clark","Clark County","18019","IN","Indiana","38.4772","-85.7073","120185"
"Allegan","Allegan","Allegan County","26005","MI","Michigan","42.5913","-85.8884","119418"
"Tom Green","Tom Green","Tom Green County","48451","TX","Texas","31.4044","-100.4621","119048"
"Potter","Potter","Potter County","48375","TX","Texas","35.4013","-101.8939","119043"
"Robeson","Robeson","Robeson County","37155","NC","North Carolina","34.6402","-79.1039","118836"
"Douglas","Douglas","Douglas County","20045","KS","Kansas","38.8847","-95.2926","118690"
"Carroll","Carroll","Carroll County","13045","GA","Georgia","33.5828","-85.0798","118402"
"Oswego","Oswego","Oswego County","36075","NY","New York","43.4269","-76.1413","118019"
"Fayette","Fayette","Fayette County","13113","GA","Georgia","33.4139","-84.4943","117828"
"Wayne","Wayne","Wayne County","37191","NC","North Carolina","35.3640","-78.0040","117692"
"Jefferson","Jefferson","Jefferson County","36045","NY","New York","44.0495","-75.9210","117634"
"Sheboygan","Sheboygan","Sheboygan County","55117","WI","Wisconsin","43.7212","-87.9454","117528"
"Lowndes","Lowndes","Lowndes County","13185","GA","Georgia","30.8338","-83.2677","117437"
"Missoula","Missoula","Missoula County","30063","MT","Montana","47.0365","-113.9237","117379"
"Wayne","Wayne","Wayne County","39169","OH","Ohio","40.8289","-81.8880","116858"
"Gallatin","Gallatin","Gallatin County","30031","MT","Montana","45.5404","-111.1704","116725"
"Windham","Windham","Windham County","09015","CT","Connecticut","41.8300","-71.9874","116503"
"Calhoun","Calhoun","Calhoun County","01015","AL","Alabama","33.7714","-85.8260","116425"
"Henderson","Henderson","Henderson County","37089","NC","North Carolina","35.3363","-82.4800","115613"
"Lycoming","Lycoming","Lycoming County","42081","PA","Pennsylvania","41.3434","-77.0645","114274"
"Flagler","Flagler","Flagler County","12035","FL","Florida","29.4614","-81.3136","113888"
"St. Mary's","St. Mary's","St. Mary's County","24037","MD","Maryland","38.3024","-76.6058","113209"
"Delaware","Delaware","Delaware County","18035","IN","Indiana","40.2275","-85.3969","112480"
"LaPorte","LaPorte","LaPorte County","18091","IN","Indiana","41.5460","-86.7400","112184"
"Ontario","Ontario","Ontario County","36069","NY","New York","42.8528","-77.2998","112060"
"Albemarle","Albemarle","Albemarle County","51003","VA","Virginia","38.0229","-78.5567","111438"
"Newton","Newton","Newton County","13217","GA","Georgia","33.5550","-83.8502","111262"
"Mercer","Mercer","Mercer County","42085","PA","Pennsylvania","41.3022","-80.2577","111216"
"Douglas","Douglas","Douglas County","41019","OR","Oregon","43.2797","-123.1665","110680"
"Androscoggin","Androscoggin","Androscoggin County","23001","ME","Maine","44.1658","-70.2065","110378"
"Hardin","Hardin","Hardin County","21093","KY","Kentucky","37.6979","-85.9634","110134"
"Terrebonne","Terrebonne","Terrebonne Parish","22109","LA","Louisiana","29.4148","-90.8663","110100"
"LaSalle","LaSalle","LaSalle County","17099","IL","Illinois","41.3440","-88.8859","109986"
"Craighead","Craighead","Craighead County","05031","AR","Arkansas","35.8308","-90.6328","109875"
"Cowlitz","Cowlitz","Cowlitz County","53015","WA","Washington","46.1932","-122.6810","109457"
"Warren","Warren","Warren County","34041","NJ","New Jersey","40.8572","-74.9973","109354"
"Hanover","Hanover","Hanover County","51085","VA","Virginia","37.7601","-77.4910","109232"
"Eaton","Eaton","Eaton County","26045","MI","Michigan","42.5961","-84.8383","108972"
"St. Lawrence","St. Lawrence","St. Lawrence County","36089","NY","New York","44.4964","-75.0691","108836"
"Pennington","Pennington","Pennington County","46103","SD","South Dakota","44.0037","-102.8238","108707"
"Madison","Madison","Madison County","28089","MS","Mississippi","32.6347","-90.0337","108248"
"Kankakee","Kankakee","Kankakee County","17091","IL","Illinois","41.1377","-87.8618","108104"
"Miami","Miami","Miami County","39109","OH","Ohio","40.0535","-84.2289","107899"
"Bartow","Bartow","Bartow County","13015","GA","Georgia","34.2377","-84.8404","107868"
"Bradley","Bradley","Bradley County","47011","TN","Tennessee","35.1541","-84.8596","107845"
"Yamhill","Yamhill","Yamhill County","41071","OR","Oregon","45.2326","-123.3081","107024"
"Cass","Cass","Cass County","29037","MO","Missouri","38.6470","-94.3549","106966"
"Matanuska-Susitna","Matanuska-Susitna","Matanuska-Susitna Borough","02170","AK","Alaska","62.3155","-149.5728","106807"
"Navajo","Navajo","Navajo County","04017","AZ","Arizona","35.3996","-110.3214","106609"
"Vigo","Vigo","Vigo County","18167","IN","Indiana","39.4306","-87.3900","106523"
"Houston","Houston","Houston County","01069","AL","Alabama","31.1532","-85.3025","106355"
"Walworth","Walworth","Walworth County","55127","WI","Wisconsin","42.6685","-88.5419","105945"
"Monongalia","Monongalia","Monongalia County","54061","WV","West Virginia","39.6303","-80.0466","105695"
"Carver","Carver","Carver County","27019","MN","Minnesota","44.8207","-93.8026","105694"
"Tompkins","Tompkins","Tompkins County","36109","NY","New York","42.4520","-76.4736","105638"
"Sumter","Sumter","Sumter County","45085","SC","South Carolina","33.9162","-80.3822","105537"
"Rockwall","Rockwall","Rockwall County","48397","TX","Texas","32.8978","-96.4079","105227"
"Eau Claire","Eau Claire","Eau Claire County","55035","WI","Wisconsin","44.7268","-91.2860","105206"
"Platte","Platte","Platte County","29165","MO","Missouri","39.3803","-94.7738","105189"
"Woodbury","Woodbury","Woodbury County","19193","IA","Iowa","42.3897","-96.0448","105102"
"Franklin","Franklin","Franklin County","29071","MO","Missouri","38.4111","-91.0750","104331"
"Macon","Macon","Macon County","17115","IL","Illinois","39.8600","-88.9616","104331"
"Bay","Bay","Bay County","26017","MI","Michigan","43.7074","-83.9922","104050"
"Fond du Lac","Fond du Lac","Fond du Lac County","55039","WI","Wisconsin","43.7536","-88.4883","103890"
"Adams","Adams","Adams County","42001","PA","Pennsylvania","39.8715","-77.2179","103782"
"Etowah","Etowah","Etowah County","01055","AL","Alabama","34.0453","-86.0348","103468"
"Flathead","Flathead","Flathead County","30029","MT","Montana","48.2951","-114.0497","103400"
"Cecil","Cecil","Cecil County","24015","MD","Maryland","39.5712","-75.9407","103370"
"Wicomico","Wicomico","Wicomico County","24045","MD","Maryland","38.3733","-75.6208","103223"
"Whitfield","Whitfield","Whitfield County","13313","GA","Georgia","34.8056","-84.9672","103076"
"Daviess","Daviess","Daviess County","21059","KY","Kentucky","37.7318","-87.0873","102488"
"Allen","Allen","Allen County","39003","OH","Ohio","40.7715","-84.1058","102462"
"Columbiana","Columbiana","Columbiana County","39029","OH","Ohio","40.7684","-80.7772","102331"
"Nevada","Nevada","Nevada County","06057","CA","California","39.3013","-120.7689","102090"
"Craven","Craven","Craven County","37049","NC","North Carolina","35.1249","-77.0939","101405"
"Limestone","Limestone","Limestone County","01083","AL","Alabama","34.8101","-86.9814","101217"
"Highlands","Highlands","Highlands County","12055","FL","Florida","27.3433","-81.3410","101174"
"DeKalb","DeKalb","DeKalb County","17037","IL","Illinois","41.8935","-88.7703","100922"
"Laramie","Laramie","Laramie County","56021","WY","Wyoming","41.3070","-104.6895","99905"
"Garland","Garland","Garland County","05051","AR","Arkansas","34.5768","-93.1504","99694"
"Roanoke","Roanoke","Roanoke City","51770","VA","Virginia","37.2785","-79.9580","99578"
"Lenawee","Lenawee","Lenawee County","26091","MI","Michigan","41.8951","-84.0664","99346"
"Montgomery","Montgomery","Montgomery County","51121","VA","Virginia","37.1743","-80.3872","99294"
"Sutter","Sutter","Sutter County","06101","CA","California","39.0346","-121.6948","99080"
"Maury","Maury","Maury County","47119","TN","Tennessee","35.6169","-87.0770","99011"
"Cleveland","Cleveland","Cleveland County","37045","NC","North Carolina","35.3341","-81.5555","98898"
"Hunt","Hunt","Hunt County","48231","TX","Texas","33.1236","-96.0855","98783"
"Dubuque","Dubuque","Dubuque County","19061","IA","Iowa","42.4688","-90.8825","98687"
"Moore","Moore","Moore County","37125","NC","North Carolina","35.3106","-79.4814","98618"
"Madison","Madison","Madison County","47113","TN","Tennessee","35.6081","-88.8385","98373"
"Floyd","Floyd","Floyd County","13115","GA","Georgia","34.2632","-85.2143","98210"
"Story","Story","Story County","19169","IA","Iowa","42.0362","-93.4650","98106"
"Sevier","Sevier","Sevier County","47155","TN","Tennessee","35.7847","-83.5242","98088"
"Putnam","Putnam","Putnam County","36079","NY","New York","41.4267","-73.7495","97960"
"Burleigh","Burleigh","Burleigh County","38015","ND","North Dakota","46.9774","-100.4687","97895"
"Grant","Grant","Grant County","53025","WA","Washington","47.2057","-119.4518","97874"
"Ashtabula","Ashtabula","Ashtabula County","39007","OH","Ohio","41.7074","-80.7483","97869"
"Lafourche","Lafourche","Lafourche Parish","22057","LA","Louisiana","29.5661","-90.4256","97677"
"Portsmouth","Portsmouth","Portsmouth City","51740","VA","Virginia","36.8468","-76.3540","97454"
"Marshall","Marshall","Marshall County","01095","AL","Alabama","34.3670","-86.3066","97179"
"Fairbanks North Star","Fairbanks North Star","Fairbanks North Star Borough","02090","AK","Alaska","64.8078","-146.5654","97149"
"Dallas","Dallas","Dallas County","19049","IA","Iowa","41.6849","-94.0398","96604"
"Roanoke","Roanoke","Roanoke County","51161","VA","Virginia","37.2693","-80.0680","96303"
"Sherburne","Sherburne","Sherburne County","27141","MN","Minnesota","45.4440","-93.7746","96295"
"Cape May","Cape May","Cape May County","34009","NJ","New Jersey","39.1496","-74.8002","95488"
"Walton","Walton","Walton County","13297","GA","Georgia","33.7816","-83.7339","95453"
"Geauga","Geauga","Geauga County","39055","OH","Ohio","41.4996","-81.1786","95408"
"Franklin","Franklin","Franklin County","53021","WA","Washington","46.5347","-118.8990","95313"
"Bastrop","Bastrop","Bastrop County","48021","TX","Texas","30.1036","-97.3120","94887"
"Benton","Benton","Benton County","41003","OR","Oregon","44.4918","-123.4293","94667"
"Lancaster","Lancaster","Lancaster County","45057","SC","South Carolina","34.6867","-80.7054","94653"
"Rogers","Rogers","Rogers County","40131","OK","Oklahoma","36.3715","-95.6043","94637"
"Nash","Nash","Nash County","37127","NC","North Carolina","35.9673","-77.9864","94628"
"Cabell","Cabell","Cabell County","54011","WV","West Virginia","38.4203","-82.2417","94622"
"Grand Traverse","Grand Traverse","Grand Traverse County","26055","MI","Michigan","44.6688","-85.5605","94562"
"Steuben","Steuben","Steuben County","36101","NY","New York","42.2678","-77.3838","94153"
"Pottawattamie","Pottawattamie","Pottawattamie County","19155","IA","Iowa","41.3366","-95.5423","93571"
"Lauderdale","Lauderdale","Lauderdale County","01077","AL","Alabama","34.9014","-87.6540","93342"
"Suffolk","Suffolk","Suffolk City","51800","VA","Virginia","36.6953","-76.6398","93268"
"Tuscarawas","Tuscarawas","Tuscarawas County","39157","OH","Ohio","40.4409","-81.4738","93025"
"Campbell","Campbell","Campbell County","21037","KY","Kentucky","38.9465","-84.3795","93023"
"Rockdale","Rockdale","Rockdale County","13247","GA","Georgia","33.6543","-84.0266","92983"
"Bowie","Bowie","Bowie County","48037","TX","Texas","33.4458","-94.4234","92957"
"Calvert","Calvert","Calvert County","24009","MD","Maryland","38.5434","-76.5687","92515"
"St. Croix","St. Croix","St. Croix County","55109","WI","Wisconsin","45.0340","-92.4526","92495"
"Madison","Madison","Madison County","21151","KY","Kentucky","37.7202","-84.2780","92194"
"Northumberland","Northumberland","Northumberland County","42097","PA","Pennsylvania","40.8520","-76.7095","91853"
"Mendocino","Mendocino","Mendocino County","06045","CA","California","39.4402","-123.3915","91534"
"Wayne","Wayne","Wayne County","36117","NY","New York","43.1566","-77.0294","91332"
"Victoria","Victoria","Victoria County","48469","TX","Texas","28.7964","-96.9715","91280"
"Ozaukee","Ozaukee","Ozaukee County","55089","WI","Wisconsin","43.3840","-87.9509","91029"
"Grafton","Grafton","Grafton County","33009","NH","New Hampshire","43.9407","-71.8208","91025"
"Rockingham","Rockingham","Rockingham County","37157","NC","North Carolina","36.3960","-79.7750","90903"
"St. Clair","St. Clair","St. Clair County","01115","AL","Alabama","33.7157","-86.3146","90412"
"Frederick","Frederick","Frederick County","51069","VA","Virginia","39.2046","-78.2626","90287"
"Liberty","Liberty","Liberty County","48291","TX","Texas","30.1516","-94.8122","89948"
"Dodge","Dodge","Dodge County","55027","WI","Wisconsin","43.4163","-88.7075","89274"
"Twin Falls","Twin Falls","Twin Falls County","16083","ID","Idaho","42.3560","-114.6672","89128"
"Lapeer","Lapeer","Lapeer County","26087","MI","Michigan","43.0901","-83.2218","88644"
"Nassau","Nassau","Nassau County","12089","FL","Florida","30.6107","-81.8017","88492"
"Burke","Burke","Burke County","37023","NC","North Carolina","35.7496","-81.7048","87829"
"Christian","Christian","Christian County","29043","MO","Missouri","36.9696","-93.1889","87824"
"Josephine","Josephine","Josephine County","41033","OR","Oregon","42.3655","-123.5555","87686"
"Elmore","Elmore","Elmore County","01051","AL","Alabama","32.5966","-86.1492","87146"
"Cullman","Cullman","Cullman County","01043","AL","Alabama","34.1319","-86.8676","87129"
"Dougherty","Dougherty","Dougherty County","13095","GA","Georgia","31.5335","-84.2164","86825"
"Angelina","Angelina","Angelina County","48005","TX","Texas","31.2548","-94.6119","86584"
"Bannock","Bannock","Bannock County","16005","ID","Idaho","42.6685","-112.2246","86362"
"Polk","Polk","Polk County","41053","OR","Oregon","44.9035","-123.4132","86347"
"Muskingum","Muskingum","Muskingum County","39119","OH","Ohio","39.9654","-81.9444","86346"
"Lawrence","Lawrence","Lawrence County","42073","PA","Pennsylvania","40.9912","-80.3347","86311"
"Island","Island","Island County","53029","WA","Washington","48.1630","-122.5481","85938"
"Lincoln","Lincoln","Lincoln County","37109","NC","North Carolina","35.4856","-81.2235","85670"
"Buchanan","Buchanan","Buchanan County","29021","MO","Missouri","39.6598","-94.8059","85545"
"Newport","Newport","Newport County","44005","RI","Rhode Island","41.5566","-71.2365","85525"
"Orange","Orange","Orange County","48361","TX","Texas","30.1213","-93.8939","85045"
"Orangeburg","Orangeburg","Orangeburg County","45075","SC","South Carolina","33.4390","-80.8003","84909"
"Jefferson","Jefferson","Jefferson County","55055","WI","Wisconsin","43.0208","-88.7759","84808"
"Wood","Wood","Wood County","54107","WV","West Virginia","39.2112","-81.5150","84678"
"Crawford","Crawford","Crawford County","42039","PA","Pennsylvania","41.6847","-80.1062","84495"
"Chemung","Chemung","Chemung County","36015","NY","New York","42.1413","-76.7600","84456"
"Glynn","Glynn","Glynn County","13127","GA","Georgia","31.2309","-81.5407","84373"
"Cascade","Cascade","Cascade County","30013","MT","Montana","47.3080","-111.3470","84178"
"Indiana","Indiana","Indiana County","42063","PA","Pennsylvania","40.6520","-79.0876","83620"
"Midland","Midland","Midland County","26111","MI","Michigan","43.6468","-84.3881","83467"
"Lee","Lee","Lee County","28081","MS","Mississippi","34.2899","-88.6804","83388"
"Howard","Howard","Howard County","18067","IN","Indiana","40.4836","-86.1170","83349"
"Rockingham","Rockingham","Rockingham County","51165","VA","Virginia","38.5120","-78.8758","83090"
"St. Landry","St. Landry","St. Landry Parish","22097","LA","Louisiana","30.5990","-92.0058","82999"
"Monroe","Monroe","Monroe County","12087","FL","Florida","25.3187","-81.1087","82244"
"Barrow","Barrow","Barrow County","13013","GA","Georgia","33.9932","-83.7127","82138"
"Talladega","Talladega","Talladega County","01121","AL","Alabama","33.3801","-86.1659","81850"
"Payne","Payne","Payne County","40119","OK","Oklahoma","36.0773","-96.9756","81817"
"Bartholomew","Bartholomew","Bartholomew County","18005","IN","Indiana","39.2060","-85.8976","81759"
"Bullitt","Bullitt","Bullitt County","21029","KY","Kentucky","37.9701","-85.6958","81729"
"Henderson","Henderson","Henderson County","48213","TX","Texas","32.2119","-95.8536","81717"
"Coryell","Coryell","Coryell County","48099","TX","Texas","31.3909","-97.7993","81692"
"Leavenworth","Leavenworth","Leavenworth County","20103","KS","Kansas","39.1993","-95.0380","81601"
"Lewis","Lewis","Lewis County","53041","WA","Washington","46.5778","-122.3927","81214"
"Manitowoc","Manitowoc","Manitowoc County","55071","WI","Wisconsin","44.1199","-87.8097","81103"
"Cape Girardeau","Cape Girardeau","Cape Girardeau County","29031","MO","Missouri","37.3840","-89.6845","81086"
"Caldwell","Caldwell","Caldwell County","37027","NC","North Carolina","35.9530","-81.5464","80705"
"Clearfield","Clearfield","Clearfield County","42033","PA","Pennsylvania","41.0000","-78.4742","80667"
"Wagoner","Wagoner","Wagoner County","40145","OK","Oklahoma","35.9611","-95.5212","80509"
"Yuba","Yuba","Yuba County","06115","CA","California","39.2690","-121.3513","80404"
"Kosciusko","Kosciusko","Kosciusko County","18085","IN","Indiana","41.2441","-85.8607","80151"
"Clinton","Clinton","Clinton County","36019","NY","New York","44.7462","-73.6782","80095"
"Bulloch","Bulloch","Bulloch County","13031","GA","Georgia","32.3968","-81.7432","79635"
"Floyd","Floyd","Floyd County","18043","IN","Indiana","38.3188","-85.9070","79594"
"Umatilla","Umatilla","Umatilla County","41059","OR","Oregon","45.5919","-118.7369","79509"
"Natrona","Natrona","Natrona County","56025","WY","Wyoming","42.9621","-106.7985","79382"
"Bedford","Bedford","Bedford County","51019","VA","Virginia","37.3152","-79.5242","79183"
"Lynchburg","Lynchburg","Lynchburg City","51680","VA","Virginia","37.4003","-79.1909","78973"
"Putnam","Putnam","Putnam County","47141","TN","Tennessee","36.1408","-85.4952","78955"
"Clinton","Clinton","Clinton County","26037","MI","Michigan","42.9437","-84.6015","78895"
"Wilson","Wilson","Wilson County","37195","NC","North Carolina","35.7051","-77.9187","78844"
"Hancock","Hancock","Hancock County","18059","IN","Indiana","39.8236","-85.7733","78616"
"Chelan","Chelan","Chelan County","53007","WA","Washington","47.8692","-120.6190","78508"
"Sullivan","Sullivan","Sullivan County","36105","NY","New York","41.7164","-74.7681","78230"
"Oconee","Oconee","Oconee County","45073","SC","South Carolina","34.7535","-83.0659","77932"
"Forrest","Forrest","Forrest County","28035","MS","Mississippi","31.1889","-89.2579","77743"
"James City","James City","James City County","51095","VA","Virginia","37.3288","-76.7789","77733"
"Cole","Cole","Cole County","29051","MO","Missouri","38.5054","-92.2816","77412"
"Cattaraugus","Cattaraugus","Cattaraugus County","36009","NY","New York","42.2486","-78.6788","77211"
"Ross","Ross","Ross County","39141","OH","Ohio","39.3376","-83.0570","77205"
"White","White","White County","05145","AR","Arkansas","35.2563","-91.7456","77075"
"Augusta","Augusta","Augusta County","51015","VA","Virginia","38.1644","-79.1338","76948"
"Clallam","Clallam","Clallam County","53009","WA","Washington","48.0493","-123.9280","76727"
"Anderson","Anderson","Anderson County","47001","TN","Tennessee","36.1185","-84.1985","76683"
"Cayuga","Cayuga","Cayuga County","36011","NY","New York","42.9175","-76.5545","76644"
"Walker","Walker","Walker County","48471","TX","Texas","30.7390","-95.5723","76506"
"Cheshire","Cheshire","Cheshire County","33005","NH","New Hampshire","42.9193","-72.2512","76473"
"Valencia","Valencia","Valencia County","35061","NM","New Mexico","34.7155","-106.8090","75992"
"Erie","Erie","Erie County","39043","OH","Ohio","41.3641","-82.6194","75560"
"Van Buren","Van Buren","Van Buren County","26159","MI","Michigan","42.2513","-86.0189","75550"
"Hancock","Hancock","Hancock County","39063","OH","Ohio","41.0019","-83.6665","75139"
"Chatham","Chatham","Chatham County","37037","NC","North Carolina","35.7026","-79.2553","75070"
"Vermilion","Vermilion","Vermilion County","17183","IL","Illinois","40.1834","-87.7328","74953"
"Raleigh","Raleigh","Raleigh County","54081","WV","West Virginia","37.7714","-81.2487","74929"
"Grays Harbor","Grays Harbor","Grays Harbor County","53027","WA","Washington","47.1503","-123.7735","74737"
"Scioto","Scioto","Scioto County","39145","OH","Ohio","38.8039","-82.9929","74392"
"Somerset","Somerset","Somerset County","42111","PA","Pennsylvania","39.9725","-79.0283","74331"
"Wood","Wood","Wood County","55141","WI","Wisconsin","44.4553","-90.0416","74107"
"Jackson","Jackson","Jackson County","13157","GA","Georgia","34.1339","-83.5664","73839"
"Lonoke","Lonoke","Lonoke County","05085","AR","Arkansas","34.7542","-91.8888","73824"
"Lauderdale","Lauderdale","Lauderdale County","28075","MS","Mississippi","32.4043","-88.6625","73756"
"Walton","Walton","Walton County","12131","FL","Florida","30.6436","-86.1697","73456"
"Kauai","Kauai","Kauai County","15007","HI","Hawaii","22.0398","-159.5966","73247"
"Putnam","Putnam","Putnam County","12107","FL","Florida","29.6087","-81.7443","73147"
"Grand Forks","Grand Forks","Grand Forks County","38035","ND","North Dakota","47.9219","-97.4569","73101"
"McKinley","McKinley","McKinley County","35031","NM","New Mexico","35.5807","-108.2618","72946"
"Lea","Lea","Lea County","35025","NM","New Mexico","32.7921","-103.4125","72743"
"Broomfield","Broomfield","Broomfield County","08014","CO","Colorado","39.9541","-105.0527","72697"
"Riley","Riley","Riley County","20161","KS","Kansas","39.2966","-96.7352","72602"
"Fauquier","Fauquier","Fauquier County","51061","VA","Virginia","38.7386","-77.8092","72416"
"Christian","Christian","Christian County","21047","KY","Kentucky","36.8942","-87.4904","72377"
"Pottawatomie","Pottawatomie","Pottawatomie County","40125","OK","Oklahoma","35.2066","-96.9484","72331"
"Robertson","Robertson","Robertson County","47147","TN","Tennessee","36.5255","-86.8706","72309"
"Creek","Creek","Creek County","40037","OK","Oklahoma","35.9026","-96.3709","71879"
"DeKalb","DeKalb","DeKalb County","01049","AL","Alabama","34.4598","-85.8041","71554"
"Surry","Surry","Surry County","37171","NC","North Carolina","36.4146","-80.6880","71439"
"Morgan","Morgan","Morgan County","18109","IN","Indiana","39.4816","-86.4462","71394"
"Tooele","Tooele","Tooele County","49045","UT","Utah","40.4488","-113.1311","71340"
"Franklin","Franklin","Franklin County","25011","MA","Massachusetts","42.5831","-72.5918","71085"
"Iberia","Iberia","Iberia Parish","22045","LA","Louisiana","29.8965","-91.7301","70518"
"Portage","Portage","Portage County","55097","WI","Wisconsin","44.4760","-89.5014","70378"
"Lewis and Clark","Lewis and Clark","Lewis and Clark County","30049","MT","Montana","47.1224","-112.3905","70340"
"Greene","Greene","Greene County","47059","TN","Tennessee","36.1753","-82.8458","69926"
"Boone","Boone","Boone County","18011","IN","Indiana","40.0508","-86.4687","69839"
"Ward","Ward","Ward County","38101","ND","North Dakota","48.2217","-101.5418","69686"
"York","York","York County","51199","VA","Virginia","37.2431","-76.5635","69635"
"Troup","Troup","Troup County","13285","GA","Georgia","33.0335","-85.0284","69483"
"Greenwood","Greenwood","Greenwood County","45047","SC","South Carolina","34.1537","-82.1259","69338"
"Columbia","Columbia","Columbia County","12023","FL","Florida","30.2242","-82.6215","69265"
"Klamath","Klamath","Klamath County","41035","OR","Oregon","42.6864","-121.6502","68899"
"Allegany","Allegany","Allegany County","24001","MD","Maryland","39.6214","-78.6976","68684"
"Harrison","Harrison","Harrison County","48203","TX","Texas","32.5481","-94.3715","68674"
"San Patricio","San Patricio","San Patricio County","48409","TX","Texas","28.0092","-97.5188","68600"
"Blue Earth","Blue Earth","Blue Earth County","27013","MN","Minnesota","44.0346","-94.0670","68575"
"Madison","Madison","Madison County","36053","NY","New York","42.9128","-75.6696","68466"
"Shiawassee","Shiawassee","Shiawassee County","26155","MI","Michigan","42.9537","-84.1467","68203"
"Jefferson","Jefferson","Jefferson County","05069","AR","Arkansas","34.2683","-91.9304","68199"
"Carteret","Carteret","Carteret County","37031","NC","North Carolina","34.8357","-76.6589","67944"
"Wise","Wise","Wise County","48497","TX","Texas","33.2159","-97.6545","67877"
"Walker","Walker","Walker County","13295","GA","Georgia","34.7356","-85.3010","67772"
"Lake","Lake","Lake County","06033","CA","California","39.0996","-122.7532","67749"
"Franklin","Franklin","Franklin County","37069","NC","North Carolina","36.0827","-78.2857","67598"
"Oldham","Oldham","Oldham County","21185","KY","Kentucky","38.3994","-85.4483","67586"
"Catoosa","Catoosa","Catoosa County","13047","GA","Georgia","34.9036","-85.1382","67579"
"Butler","Butler","Butler County","20015","KS","Kansas","37.7812","-96.8390","67404"
"McCracken","McCracken","McCracken County","21145","KY","Kentucky","37.0540","-88.7128","67394"
"Jones","Jones","Jones County","28067","MS","Mississippi","31.6226","-89.1688","67374"
"Otero","Otero","Otero County","35035","NM","New Mexico","32.6132","-105.7415","67298"
"Aroostook","Aroostook","Aroostook County","23003","ME","Maine","46.6589","-68.5989","67272"
"Williamson","Williamson","Williamson County","17199","IL","Illinois","37.7303","-88.9299","67271"
"St. Francois","St. Francois","St. Francois County","29187","MO","Missouri","37.8103","-90.4723","67168"
"Laurens","Laurens","Laurens County","45059","SC","South Carolina","34.4834","-82.0057","67148"
"Belmont","Belmont","Belmont County","39013","OH","Ohio","40.0158","-80.9885","67077"
"Muskogee","Muskogee","Muskogee County","40101","OK","Oklahoma","35.6161","-95.3795","66881"
"Grant","Grant","Grant County","18053","IN","Indiana","40.5158","-85.6547","66802"
"Rice","Rice","Rice County","27131","MN","Minnesota","44.3543","-93.2967","66795"
"Spalding","Spalding","Spalding County","13255","GA","Georgia","33.2609","-84.2841","66722"
"Wayne","Wayne","Wayne County","18177","IN","Indiana","39.8644","-85.0098","66588"
"Ionia","Ionia","Ionia County","26067","MI","Michigan","42.9451","-85.0746","66564"
"Apache","Apache","Apache County","04001","AZ","Arizona","35.3955","-109.4888","66473"
"Montcalm","Montcalm","Montcalm County","26117","MI","Michigan","43.3110","-85.1525","66430"
"Marquette","Marquette","Marquette County","26103","MI","Michigan","46.4313","-87.6416","66380"
"Wilkes","Wilkes","Wilkes County","37193","NC","North Carolina","36.2062","-81.1630","66335"
"Harrison","Harrison","Harrison County","54033","WV","West Virginia","39.2835","-80.3799","66222"
"Armstrong","Armstrong","Armstrong County","42005","PA","Pennsylvania","40.8121","-79.4646","65967"
"Crow Wing","Crow Wing","Crow Wing County","27035","MN","Minnesota","46.4825","-94.0709","65879"
"Adams","Adams","Adams County","17001","IL","Illinois","39.9879","-91.1885","65878"
"Chippewa","Chippewa","Chippewa County","55017","WI","Wisconsin","45.0694","-91.2799","65877"
"Warren","Warren","Warren County","36113","NY","New York","43.5610","-73.8460","65692"
"Isabella","Isabella","Isabella County","26073","MI","Michigan","43.6406","-84.8468","65623"
"Jefferson","Jefferson","Jefferson County","39081","OH","Ohio","40.3850","-80.7610","65620"
"Starr","Starr","Starr County","48427","TX","Texas","26.5621","-98.7387","65568"
"Marion","Marion","Marion County","39101","OH","Ohio","40.5872","-83.1609","65515"
"Sauk","Sauk","Sauk County","55111","WI","Wisconsin","43.4267","-89.9482","65428"
"Tehama","Tehama","Tehama County","06103","CA","California","40.1256","-122.2341","65345"
"Walker","Walker","Walker County","01127","AL","Alabama","33.8033","-87.2973","65194"
"Chaves","Chaves","Chaves County","35005","NM","New Mexico","33.3633","-104.4669","65014"
"Columbia","Columbia","Columbia County","42037","PA","Pennsylvania","41.0486","-76.4052","65013"
"Kershaw","Kershaw","Kershaw County","45055","SC","South Carolina","34.3388","-80.5902","64989"
"Clay","Clay","Clay County","27027","MN","Minnesota","46.8923","-96.4907","64975"
"Mason","Mason","Mason County","53045","WA","Washington","47.3484","-123.1927","64964"
"Nacogdoches","Nacogdoches","Nacogdoches County","48347","TX","Texas","31.6160","-94.6159","64822"
"Carbon","Carbon","Carbon County","42025","PA","Pennsylvania","40.9182","-75.7088","64792"
"Salem","Salem","Salem County","34033","NJ","New Jersey","39.5876","-75.3491","64752"
"Pulaski","Pulaski","Pulaski County","21199","KY","Kentucky","37.1039","-84.5773","64717"
"Coos","Coos","Coos County","41011","OR","Oregon","43.1742","-124.0594","64619"
"Rutherford","Rutherford","Rutherford County","37161","NC","North Carolina","35.4026","-81.9198","64592"
"Liberty","Liberty","Liberty County","13179","GA","Georgia","31.8282","-81.4949","64334"
"Hamblen","Hamblen","Hamblen County","47063","TN","Tennessee","36.2171","-83.2667","64184"
"Lamar","Lamar","Lamar County","28073","MS","Mississippi","31.2060","-89.5087","63610"
"Warrick","Warrick","Warrick County","18173","IN","Indiana","38.0922","-87.2721","63575"
"Effingham","Effingham","Effingham County","13103","GA","Georgia","32.3674","-81.3414","63448"
"Darlington","Darlington","Darlington County","45031","SC","South Carolina","34.3325","-79.9577","63433"
"Belknap","Belknap","Belknap County","33001","NH","New Hampshire","43.5179","-71.4227","63395"
"San Benito","San Benito","San Benito County","06069","CA","California","36.6057","-121.0750","63329"
"Pope","Pope","Pope County","05115","AR","Arkansas","35.4477","-93.0345","63234"
"Lincoln","Lincoln","Lincoln County","46083","SD","South Dakota","43.2789","-96.7218","63233"
"Georgetown","Georgetown","Georgetown County","45043","SC","South Carolina","33.4342","-79.3324","62992"
"Athens","Athens","Athens County","39009","OH","Ohio","39.3339","-82.0452","62933"
"Lee","Lee","Lee County","37105","NC","North Carolina","35.4752","-79.1715","62676"
"Garfield","Garfield","Garfield County","40047","OK","Oklahoma","36.3791","-97.7827","62628"
"Hall","Hall","Hall County","31079","NE","Nebraska","40.8726","-98.5022","62616"
"Knox","Knox","Knox County","39083","OH","Ohio","40.3988","-82.4215","62399"
"Livingston","Livingston","Livingston County","36051","NY","New York","42.7281","-77.7755","62253"
"Walla Walla","Walla Walla","Walla Walla County","53071","WA","Washington","46.2298","-118.4784","62168"
"Stanly","Stanly","Stanly County","37167","NC","North Carolina","35.3119","-80.2510","62148"
"Laurel","Laurel","Laurel County","21125","KY","Kentucky","37.1107","-84.1178","62090"
"Reno","Reno","Reno County","20155","KS","Kansas","37.9530","-98.0860","62071"
"Barry","Barry","Barry County","26015","MI","Michigan","42.5950","-85.3090","62014"
"Union","Union","Union County","39159","OH","Ohio","40.2994","-83.3716","61769"
"Haywood","Haywood","Haywood County","37087","NC","North Carolina","35.5560","-82.9822","61695"
"Columbia","Columbia","Columbia County","36021","NY","New York","42.2501","-73.6318","61587"
"Washington","Washington","Washington County","36115","NY","New York","43.3137","-73.4308","61504"
"Garfield","Garfield","Garfield County","08045","CO","Colorado","39.5993","-107.9040","61221"
"Eddy","Eddy","Eddy County","35015","NM","New Mexico","32.4714","-104.3044","61096"
"Tipton","Tipton","Tipton County","47167","TN","Tennessee","35.4973","-89.7566","60868"
"Granville","Granville","Granville County","37077","NC","North Carolina","36.3040","-78.6527","60854"
"Pittsylvania","Pittsylvania","Pittsylvania County","51143","VA","Virginia","36.8213","-79.3971","60833"
"St. Joseph","St. Joseph","St. Joseph County","26149","MI","Michigan","41.9144","-85.5278","60828"
"Rutland","Rutland","Rutland County","50021","VT","Vermont","43.5802","-73.0364","60662"
"Herkimer","Herkimer","Herkimer County","36043","NY","New York","43.4193","-74.9624","60596"
"Cumberland","Cumberland","Cumberland County","47035","TN","Tennessee","35.9504","-84.9984","60568"
"Hood","Hood","Hood County","48221","TX","Texas","32.4299","-97.8323","60521"
"Crawford","Crawford","Crawford County","05033","AR","Arkansas","35.5880","-94.2429","60483"
"Bradford","Bradford","Bradford County","42015","PA","Pennsylvania","41.7887","-76.5154","60233"
"Pender","Pender","Pender County","37141","NC","North Carolina","34.5248","-77.9051","59964"
"Washington","Washington","Washington County","39167","OH","Ohio","39.4553","-81.4953","59942"
"Mercer","Mercer","Mercer County","54055","WV","West Virginia","37.4055","-81.1114","59892"
"Otter Tail","Otter Tail","Otter Tail County","27111","MN","Minnesota","46.4088","-95.7080","59728"
"Washington","Washington","Washington County","50023","VT","Vermont","44.2736","-72.6148","59609"
"Sampson","Sampson","Sampson County","37163","NC","North Carolina","34.9916","-78.3714","59468"
"Sandusky","Sandusky","Sandusky County","39143","OH","Ohio","41.3562","-83.1464","59013"
"Otsego","Otsego","Otsego County","36077","NY","New York","42.6338","-75.0326","58952"
"Pike","Pike","Pike County","21195","KY","Kentucky","37.4691","-82.3958","58914"
"Lowndes","Lowndes","Lowndes County","28087","MS","Mississippi","33.4729","-88.4433","58904"
"Blount","Blount","Blount County","01009","AL","Alabama","33.9809","-86.5674","58884"
"Van Zandt","Van Zandt","Van Zandt County","48467","TX","Texas","32.5637","-95.8365","58782"
"Kenai Peninsula","Kenai Peninsula","Kenai Peninsula Borough","02122","AK","Alaska","60.2654","-151.5652","58711"
"Russell","Russell","Russell County","01113","AL","Alabama","32.2884","-85.1849","58695"
"Lincoln","Lincoln","Lincoln County","29113","MO","Missouri","39.0580","-90.9600","58689"
"Newton","Newton","Newton County","29145","MO","Missouri","36.9055","-94.3393","58634"
"Huron","Huron","Huron County","39077","OH","Ohio","41.1463","-82.5980","58583"
"Lawrence","Lawrence","Lawrence County","39087","OH","Ohio","38.5984","-82.5368","58570"
"Pickaway","Pickaway","Pickaway County","39129","OH","Ohio","39.6419","-83.0244","58458"
"Genesee","Genesee","Genesee County","36037","NY","New York","43.0009","-78.1937","58387"
"Pike","Pike","Pike County","42103","PA","Pennsylvania","41.3320","-75.0338","58345"
"Autauga","Autauga","Autauga County","01001","AL","Alabama","32.5349","-86.6427","58239"
"Columbia","Columbia","Columbia County","55021","WI","Wisconsin","43.4666","-89.3337","58219"
"Acadia","Acadia","Acadia Parish","22001","LA","Louisiana","30.2906","-92.4120","58200"
"Anderson","Anderson","Anderson County","48001","TX","Texas","31.8133","-95.6525","58133"
"Lyon","Lyon","Lyon County","32019","NV","Nevada","39.0206","-119.1890","58029"
"Carson City","Carson City","Carson City","32510","NV","Nevada","39.1511","-119.7476","57957"
"Oxford","Oxford","Oxford County","23017","ME","Maine","44.4999","-70.7566","57807"
"Vermilion","Vermilion","Vermilion Parish","22113","LA","Louisiana","29.8466","-92.3237","57775"
"Maverick","Maverick","Maverick County","48323","TX","Texas","28.7426","-100.3145","57769"
"Windsor","Windsor","Windsor County","50027","VT","Vermont","43.5799","-72.5862","57593"
"Jefferson","Jefferson","Jefferson County","54037","WV","West Virginia","39.3076","-77.8628","57542"
"Putnam","Putnam","Putnam County","54079","WV","West Virginia","38.5086","-81.9090","57385"
"Gordon","Gordon","Gordon County","13129","GA","Georgia","34.5032","-84.8759","57274"
"Coffee","Coffee","Coffee County","47031","TN","Tennessee","35.4906","-86.0748","57227"
"Box Elder","Box Elder","Box Elder County","49003","UT","Utah","41.5210","-113.0821","56891"
"Hawkins","Hawkins","Hawkins County","47073","TN","Tennessee","36.4412","-82.9447","56803"
"Colbert","Colbert","Colbert County","01033","AL","Alabama","34.7005","-87.8049","56789"
"Chisago","Chisago","Chisago County","27025","MN","Minnesota","45.5025","-92.9083","56328"
"Carter","Carter","Carter County","47019","TN","Tennessee","36.2928","-82.1275","56314"
"Scott","Scott","Scott County","21209","KY","Kentucky","38.2915","-84.5839","56267"
"Marion","Marion","Marion County","54049","WV","West Virginia","39.5100","-80.2434","56256"
"Cherokee","Cherokee","Cherokee County","45021","SC","South Carolina","35.0481","-81.6206","56204"
"Hardin","Hardin","Hardin County","48199","TX","Texas","30.3324","-94.3902","56124"
"Pearl River","Pearl River","Pearl River County","28109","MS","Mississippi","30.7688","-89.5896","55972"
"Whiteside","Whiteside","Whiteside County","17195","IL","Illinois","41.7562","-89.9141","55932"
"Taney","Taney","Taney County","29213","MO","Missouri","36.6548","-93.0411","55854"
"Iron","Iron","Iron County","49021","UT","Utah","37.8592","-113.2895","55839"
"Lafayette","Lafayette","Lafayette County","28071","MS","Mississippi","34.3568","-89.4850","55727"
"Eagle","Eagle","Eagle County","08037","CO","Colorado","39.6279","-106.6954","55693"
"La Plata","La Plata","La Plata County","08067","CO","Colorado","37.2866","-107.8433","55673"
"Campbell","Campbell","Campbell County","51031","VA","Virginia","37.2053","-79.0966","55656"
"Waller","Waller","Waller County","48473","TX","Texas","30.0108","-95.9876","55505"
"Hancock","Hancock","Hancock County","23009","ME","Maine","44.6643","-68.3585","55417"
"Lenoir","Lenoir","Lenoir County","37107","NC","North Carolina","35.2388","-77.6412","55344"
"Tuolumne","Tuolumne","Tuolumne County","06109","CA","California","38.0276","-119.9548","55243"
"Seneca","Seneca","Seneca County","39147","OH","Ohio","41.1239","-83.1277","55166"
"Franklin","Franklin","Franklin County","51067","VA","Virginia","36.9920","-79.8811","54829"
"Grady","Grady","Grady County","40051","OK","Oklahoma","35.0169","-97.8841","54739"
"Saline","Saline","Saline County","20169","KS","Kansas","38.7838","-97.6500","54378"
"Jefferson","Jefferson","Jefferson County","47089","TN","Tennessee","36.0510","-83.4463","54358"
"Loudon","Loudon","Loudon County","47105","TN","Tennessee","35.7348","-84.3119","54349"
"Camden","Camden","Camden County","13039","GA","Georgia","30.9306","-81.6699","54256"
"Watauga","Watauga","Watauga County","37189","NC","North Carolina","36.2311","-81.6964","54077"
"Dickson","Dickson","Dickson County","47043","TN","Tennessee","36.1490","-87.3567","54000"
"Washington","Washington","Washington County","51191","VA","Virginia","36.7244","-81.9598","53997"
"Johnson","Johnson","Johnson County","29101","MO","Missouri","38.7441","-93.8064","53889"
"Jackson","Jackson","Jackson County","17077","IL","Illinois","37.7851","-89.3821","53676"
"Boone","Boone","Boone County","17007","IL","Illinois","42.3231","-88.8234","53592"
"Fulton","Fulton","Fulton County","36035","NY","New York","43.1138","-74.4222","53588"
"Pulaski","Pulaski","Pulaski County","29169","MO","Missouri","37.8246","-92.2076","53460"
"Elko","Elko","Elko County","32007","NV","Nevada","41.1457","-115.3577","53420"
"Roane","Roane","Roane County","47145","TN","Tennessee","35.8479","-84.5232","53313"
"Tuscola","Tuscola","Tuscola County","26157","MI","Michigan","43.4641","-83.4167","53288"
"Gila","Gila","Gila County","04007","AZ","Arizona","33.7997","-110.8116","53211"
"McMinn","McMinn","McMinn County","47107","TN","Tennessee","35.4248","-84.6175","53065"
"Coffee","Coffee","Coffee County","01031","AL","Alabama","31.4027","-85.9882","53043"
"Jessamine","Jessamine","Jessamine County","21113","KY","Kentucky","37.8721","-84.5809","53016"
"Ashland","Ashland","Ashland County","39005","OH","Ohio","40.8460","-82.2707","52658"
"Jackson","Jackson","Jackson County","01071","AL","Alabama","34.7795","-85.9994","52548"
"Rusk","Rusk","Rusk County","48401","TX","Texas","32.1077","-94.7618","52542"
"Kerr","Kerr","Kerr County","48265","TX","Texas","30.0615","-99.3500","52411"
"St. Charles","St. Charles","St. Charles Parish","22089","LA","Louisiana","29.9055","-90.3582","52411"
"Washington","Washington","Washington County","40147","OK","Oklahoma","36.7152","-95.9044","52382"
"Columbia","Columbia","Columbia County","41009","OR","Oregon","45.9438","-123.0883","52381"
"Grundy","Grundy","Grundy County","17063","IL","Illinois","41.2851","-88.4185","52364"
"Worcester","Worcester","Worcester County","24047","MD","Maryland","38.2128","-75.3340","52322"
"St. Martin","St. Martin","St. Martin Parish","22099","LA","Louisiana","30.1291","-91.6083","52222"
"Grant","Grant","Grant County","55043","WI","Wisconsin","42.8675","-90.7062","52210"
"Hoke","Hoke","Hoke County","37093","NC","North Carolina","35.0175","-79.2373","52169"
"Calumet","Calumet","Calumet County","55015","WI","Wisconsin","44.0816","-88.2181","52128"
"Harrisonburg","Harrisonburg","Harrisonburg City","51660","VA","Virginia","38.4361","-78.8735","52062"
"Culpeper","Culpeper","Culpeper County","51047","VA","Virginia","38.4860","-77.9558","52021"
"Navarro","Navarro","Navarro County","48349","TX","Texas","32.0470","-96.4725","51908"
"Warren","Warren","Warren County","19181","IA","Iowa","41.3343","-93.5615","51862"
"Darke","Darke","Darke County","39037","OH","Ohio","40.1333","-84.6194","51839"
"Ogle","Ogle","Ogle County","17141","IL","Illinois","42.0426","-89.3207","51787"
"Waupaca","Waupaca","Waupaca County","55135","WI","Wisconsin","44.4705","-88.9648","51769"
"Cass","Cass","Cass County","26027","MI","Michigan","41.9154","-85.9935","51632"
"Columbus","Columbus","Columbus County","37047","NC","North Carolina","34.2656","-78.6550","51474"
"Oktibbeha","Oktibbeha","Oktibbeha County","28105","MS","Mississippi","33.4250","-88.8793","51339"
"Franklin","Franklin","Franklin County","21073","KY","Kentucky","38.2392","-84.8770","51319"
"Wayne","Wayne","Wayne County","42127","PA","Pennsylvania","41.6487","-75.3033","51244"
"Henry","Henry","Henry County","51089","VA","Virginia","36.6828","-79.8740","51077"
"Madison","Madison","Madison County","16065","ID","Idaho","43.7841","-111.6592","50979"
"Venango","Venango","Venango County","42121","PA","Pennsylvania","41.4010","-79.7580","50810"
"Bristol","Bristol","Bristol County","44001","RI","Rhode Island","41.7173","-71.2840","50672"
"Cherokee","Cherokee","Cherokee County","48073","TX","Texas","31.8370","-95.1652","50564"
"Dearborn","Dearborn","Dearborn County","18029","IN","Indiana","39.1452","-84.9732","50494"
"Medina","Medina","Medina County","48325","TX","Texas","29.3557","-99.1101","50458"
"Somerset","Somerset","Somerset County","23025","ME","Maine","45.5139","-69.9589","50424"
"Gibson","Gibson","Gibson County","47053","TN","Tennessee","35.9966","-88.9326","50278"
"Knox","Knox","Knox County","17095","IL","Illinois","40.9318","-90.2132","50193"
"Nye","Nye","Nye County","32023","NV","Nevada","38.0423","-116.4719","50096"
"Carroll","Carroll","Carroll County","33003","NH","New Hampshire","43.8738","-71.2031","49961"
"Lamar","Lamar","Lamar County","48277","TX","Texas","33.6673","-95.5712","49932"
"Winona","Winona","Winona County","27169","MN","Minnesota","43.9869","-91.7792","49889"
"Lincoln","Lincoln","Lincoln County","41041","OR","Oregon","44.6420","-123.8682","49866"
"Buffalo","Buffalo","Buffalo County","31019","NE","Nebraska","40.8551","-99.0750","49840"
"Duplin","Duplin","Duplin County","37061","NC","North Carolina","34.9365","-77.9330","49836"
"St. Mary","St. Mary","St. Mary Parish","22101","LA","Louisiana","29.7206","-91.4485","49818"
"Bedford","Bedford","Bedford County","47003","TN","Tennessee","35.5138","-86.4589","49754"
"Franklin","Franklin","Franklin County","50011","VT","Vermont","44.8576","-72.9131","49752"
"Queen Anne's","Queen Anne's","Queen Anne's County","24035","MD","Maryland","39.0680","-76.0203","49702"
"Newaygo","Newaygo","Newaygo County","26123","MI","Michigan","43.5542","-85.8009","49653"
"Edgecombe","Edgecombe","Edgecombe County","37065","NC","North Carolina","35.9129","-77.5971","49609"
"Montgomery","Montgomery","Montgomery County","36057","NY","New York","42.9023","-74.4397","49539"
"Dale","Dale","Dale County","01045","AL","Alabama","31.4318","-85.6110","49443"
"Henry","Henry","Henry County","17073","IL","Illinois","41.3531","-90.1314","49412"
"Wilson","Wilson","Wilson County","48493","TX","Texas","29.1740","-98.0866","49374"
"Polk","Polk","Polk County","48373","TX","Texas","30.7927","-94.8300","49372"
"Halifax","Halifax","Halifax County","37083","NC","North Carolina","36.2574","-77.6517","49291"
"Laurens","Laurens","Laurens County","13175","GA","Georgia","32.4637","-82.9222","49202"
"Douglas","Douglas","Douglas County","32005","NV","Nevada","38.9123","-119.6162","49158"
"Vernon","Vernon","Vernon Parish","22115","LA","Louisiana","31.1083","-93.1843","49064"
"Fremont","Fremont","Fremont County","08043","CO","Colorado","38.4731","-105.4395","49007"
"Logan","Logan","Logan County","40083","OK","Oklahoma","35.9193","-97.4433","49005"
"Henry","Henry","Henry County","18065","IN","Indiana","39.9311","-85.3964","48857"
"Curry","Curry","Curry County","35009","NM","New Mexico","34.5742","-103.3470","48716"
"Atascosa","Atascosa","Atascosa County","48013","TX","Texas","28.8935","-98.5272","48684"
"Tioga","Tioga","Tioga County","36107","NY","New York","42.1703","-76.3063","48567"
"Boyd","Boyd","Boyd County","21019","KY","Kentucky","38.3596","-82.6878","48447"
"Le Flore","Le Flore","Le Flore County","40079","OK","Oklahoma","34.9003","-94.7034","48436"
"Burnet","Burnet","Burnet County","48053","TX","Texas","30.7884","-98.1823","48424"
"Lincoln","Lincoln","Lincoln Parish","22061","LA","Louisiana","32.6016","-92.6649","48415"
"Crittenden","Crittenden","Crittenden County","05035","AR","Arkansas","35.2057","-90.3078","48338"
"Shelby","Shelby","Shelby County","39149","OH","Ohio","40.3316","-84.2048","48307"
"Whitman","Whitman","Whitman County","53075","WA","Washington","46.9012","-117.5230","48197"
"Carter","Carter","Carter County","40019","OK","Oklahoma","34.2509","-97.2858","48102"
"Jackson","Jackson","Jackson County","12063","FL","Florida","30.7954","-85.2155","48067"
"Greene","Greene","Greene County","36039","NY","New York","42.2765","-74.1227","48026"
"Franklin","Franklin","Franklin County","36033","NY","New York","44.5929","-74.3038","47996"
"Val Verde","Val Verde","Val Verde County","48465","TX","Texas","29.8929","-101.1517","47767"
"Bedford","Bedford","Bedford County","42009","PA","Pennsylvania","40.0065","-78.4903","47729"
"Coles","Coles","Coles County","17029","IL","Illinois","39.5203","-88.2217","47542"
"Bingham","Bingham","Bingham County","16011","ID","Idaho","43.2166","-112.3981","47540"
"Shelby","Shelby","Shelby County","21211","KY","Kentucky","38.2155","-85.1948","47523"
"Goodhue","Goodhue","Goodhue County","27049","MN","Minnesota","44.4097","-92.7229","47503"
"Santa Cruz","Santa Cruz","Santa Cruz County","04023","AZ","Arizona","31.5260","-110.8465","47463"
"Chenango","Chenango","Chenango County","36017","NY","New York","42.4935","-75.6116","47407"
"Cherokee","Cherokee","Cherokee County","40021","OK","Oklahoma","35.9067","-94.9997","47307"
"Noble","Noble","Noble County","18113","IN","Indiana","41.3986","-85.4175","47293"
"Cortland","Cortland","Cortland County","36023","NY","New York","42.5950","-76.0703","46984"
"Campbell","Campbell","Campbell County","56005","WY","Wyoming","44.2482","-105.5482","46758"
"Allegany","Allegany","Allegany County","36003","NY","New York","42.2574","-78.0276","46654"
"Charlottesville","Charlottesville","Charlottesville City","51540","VA","Virginia","38.0375","-78.4855","46597"
"Clinton","Clinton","Clinton County","19045","IA","Iowa","41.8980","-90.5320","46589"
"Barron","Barron","Barron County","55005","WI","Wisconsin","45.4237","-91.8483","46529"
"Bonner","Bonner","Bonner County","16017","ID","Idaho","48.3000","-116.6011","46481"
"Nelson","Nelson","Nelson County","21179","KY","Kentucky","37.8052","-85.4660","46440"
"Auglaize","Auglaize","Auglaize County","39011","OH","Ohio","40.5609","-84.2217","46282"
"Marshall","Marshall","Marshall County","18099","IN","Indiana","41.3248","-86.2618","46175"
"Mifflin","Mifflin","Mifflin County","42087","PA","Pennsylvania","40.6104","-77.6170","46156"
"Osage","Osage","Osage County","40113","OK","Oklahoma","36.6292","-96.3985","46140"
"Monroe","Monroe","Monroe County","55081","WI","Wisconsin","43.9458","-90.6178","46091"
"Stevens","Stevens","Stevens County","53065","WA","Washington","48.3991","-117.8552","46057"
"Monroe","Monroe","Monroe County","47123","TN","Tennessee","35.4427","-84.2527","46041"
"Beltrami","Beltrami","Beltrami County","27007","MN","Minnesota","47.9738","-94.9377","46033"
"Logan","Logan","Logan County","39091","OH","Ohio","40.3885","-83.7658","45997"
"Jackson","Jackson","Jackson County","18071","IN","Indiana","38.9064","-86.0375","45948"
"Hancock","Hancock","Hancock County","28045","MS","Mississippi","30.4160","-89.4885","45911"
"Perry","Perry","Perry County","42099","PA","Pennsylvania","40.3984","-77.2623","45879"
"Windham","Windham","Windham County","50025","VT","Vermont","42.9906","-72.7139","45811"
"Bryan","Bryan","Bryan County","40013","OK","Oklahoma","33.9623","-96.2598","45809"
"Colquitt","Colquitt","Colquitt County","13071","GA","Georgia","31.1884","-83.7688","45800"
"Washington","Washington","Washington Parish","22117","LA","Louisiana","30.8533","-90.0405","45794"
"Habersham","Habersham","Habersham County","13137","GA","Georgia","34.6310","-83.5311","45767"
"Hillsdale","Hillsdale","Hillsdale County","26059","MI","Michigan","41.8878","-84.5929","45673"
"Thomas","Thomas","Thomas County","13275","GA","Georgia","30.8637","-83.9193","45669"
"Greene","Greene","Greene County","05055","AR","Arkansas","36.1175","-90.5589","45665"
"Washington","Washington","Washington County","28151","MS","Mississippi","33.2839","-90.9474","45616"
"Hopkins","Hopkins","Hopkins County","21107","KY","Kentucky","37.3088","-87.5408","45432"
"Calaveras","Calaveras","Calaveras County","06009","CA","California","38.2046","-120.5541","45349"
"Caldwell","Caldwell","Caldwell County","48055","TX","Texas","29.8368","-97.6199","45286"
"Chambers","Chambers","Chambers County","48071","TX","Texas","29.7384","-94.6101","45257"
"Dunn","Dunn","Dunn County","55033","WI","Wisconsin","44.9466","-91.8964","45254"
"Macoupin","Macoupin","Macoupin County","17117","IL","Illinois","39.2610","-89.9245","45152"
"Warren","Warren","Warren County","28149","MS","Mississippi","32.3573","-90.8520","45141"
"Lawrence","Lawrence","Lawrence County","18093","IN","Indiana","38.8412","-86.4835","45133"
"Henderson","Henderson","Henderson County","21101","KY","Kentucky","37.7958","-87.5730","45102"
"Itasca","Itasca","Itasca County","27061","MN","Minnesota","47.5095","-93.6320","44969"
